nom,uai,commune,academie,departement,secteur,ips,latitude,longitude
Lycée polyvalent George Sand,0360019A,La Châtre,Orléans-Tours,Indre,Public,100.7,46.58353972401974,1.9774405185490846
Lycée polyvalent privé Saint Cyr-Sainte Julitte,0360505D,Issoudun,Orléans-Tours,Indre,Privé,112.8,46.951906349048684,1.9969402386333848
Ecole secondaire privée Saint Michel,0360671J,Montierchaume,Orléans-Tours,Indre,Privé,,46.82650982010273,1.7643736180272631
Ecole professionnelle privée Philibert Vrau,0360860P,Montierchaume,Orléans-Tours,Indre,Privé,,46.82650982010273,1.7643736180272631
Lycée général et technologique Léonard de Vinci,0370001A,Amboise,Orléans-Tours,Indre-et-Loire,Public,117.5,47.40099688190214,0.9824105459079514
Lycée général et technologique Balzac,0370036N,Tours,Orléans-Tours,Indre-et-Loire,Public,118.1,47.3873257543265,0.6870804244411985
Lycée général et technologique privé Grand Saint Gregoire,0370727P,Tours,Orléans-Tours,Indre-et-Loire,Privé,129.9,47.40126101536642,0.6837094447493431
Lycée général privé Saint Denis,0370737A,Loches,Orléans-Tours,Indre-et-Loire,Privé,140.9,47.127387402690786,0.9937400808624735
"Lycée professionnel privé Notre Dame La Riche, sous le patronage de Saint Vincent de Paul",0370757X,Tours,Orléans-Tours,Indre-et-Loire,Privé,112.9,47.39025945012596,0.6763564087572175
Lycée professionnel Victor Laloux - Lycée des métiers de la distribution et des services,0370771M,Tours,Orléans-Tours,Indre-et-Loire,Public,92.4,47.35943478623753,0.702950004710244
"Lycée professionnel d'Arsonval - Lycée des métiers d'art, de l'aménagement de l'espace et de la communication",0370888P,Joué-lès-Tours,Orléans-Tours,Indre-et-Loire,Public,100.5,47.3468747310573,0.6684495155026476
Lycée général et technologique Jean Monnet,0371417P,Joué-lès-Tours,Orléans-Tours,Indre-et-Loire,Public,114.3,47.33883845163394,0.6589996608922724
Lycée polyvalent privé Esthétique de Touraine,0371532P,Tours,Orléans-Tours,Indre-et-Loire,Privé,111.1,47.382385473529055,0.6896802963722642
Lycée d'enseignement général et technologique agricole de la Côte-Saint-André,0381819W,La Côte-Saint-André,Grenoble,Isère,Public,,45.38828913077507,5.267560578548466
Lycée agricole privé Le Vallon - site Saint-Jean-de-Bournay,0382375A,Saint-Jean-de-Bournay,Grenoble,Isère,Privé,,45.501511938723624,5.143062446719342
Lycée polyvalent Jacques Duhamel,0390013C,Dole,Besançon,Jura,Public,103.5,47.081704144203584,5.470800244287747
Lycée polyvalent Pré Saint Sauveur,0390786T,Saint-Claude,Besançon,Jura,Public,91.4,46.379792800805646,5.871529367759134
Lycée d'enseignement général et technologique agricole de Lons Le Saunier - Montmorot,0390810U,Montmorot,Besançon,Jura,Public,,46.689367915987745,5.510970533801388
Lycée polyvalent privé Pasteur Mont Roland,0391146J,Dole,Besançon,Jura,Privé,106.8,47.09388744490723,5.4900800443755715
"Lycée professionnel Jean d'Arcet - Lycée des métiers de l'hôtellerie restauration, de la coiffure et de l'assistance à la gestion",0400047J,Aire-sur-l'Adour,Bordeaux,Landes,Public,84.2,43.69709542037719,-0.26904046228808925
Lycée privé St Jacques de Compostelle,0401016M,Dax,Bordeaux,Landes,Privé,124.9,43.694302535397505,-1.0582039516766046
Lycée de Pontonx sur l'Adour,0401125F,Pontonx-sur-l'Adour,Bordeaux,Landes,Privé,,43.789753701357505,-0.9240437417192381
Lycée général et technologique F Philibert Dessaignes,0410002E,Blois,Orléans-Tours,Loir-et-Cher,Public,114,47.59544339381901,1.3387700845610522
Lycée d'enseignement général et technologique agricole de Vendôme - site de Blois,0410629L,Blois,Orléans-Tours,Loir-et-Cher,Public,,47.56564008668135,1.3259299132962856
Ecole secondaire privée Académie Saint Louis,0411109H,Nouan-le-Fuzelier,Orléans-Tours,Loir-et-Cher,Privé,,,
Lycée général et technologique Albert Camus,0420013L,Firminy,Lyon,Loire,Public,91,45.38837031113133,4.283000546539635
Lycée général et technologique Beauregard,0420018S,Montbrison,Lyon,Loire,Public,114.8,45.61038124074128,4.055310496631448
"Lycée professionnel Benoît Charvet - Lycée des métiers du tertiaire, du sport, des services et des soins à la personne",0420049A,Saint-Etienne,Lyon,Loire,Public,78.8,45.44622168828953,4.377669445364675
Lycée professionnel Jacob Holtzer,0420073B,Firminy,Lyon,Loire,Public,78.2,45.387899381456975,4.291929737837772
Lycée professionnel Beauregard,0420075D,Montbrison,Lyon,Loire,Public,92.4,45.61038124074128,4.055310496631448
Lycée professionnel Carnot,0420076E,Roanne,Lyon,Loire,Public,88.1,46.0418401286625,4.069759965157606
Lycée professionnel Benoît Fourneyron - Lycée des métiers de l'habitat et des énergies - Lycée des métiers de l'armurerie,0420958N,Saint-Etienne,Lyon,Loire,Public,86.1,45.417963281017286,4.422770275796339
Lycée général et technologique privé Sainte Marie La Grand'Grange,0421022H,Saint-Chamond,Lyon,Loire,Privé,122.6,45.47168835364804,4.5225304260606425
Lycée général privé Saint Paul,0421023J,Roanne,Lyon,Loire,Privé,122.2,46.038858973683446,4.07055026784956
Lycée général et technologique privé Sévigné,0421034W,Saint-Etienne,Lyon,Loire,Privé,119.9,45.431415366788315,4.397579941072392
Lycée d'enseignement généraltechnologique et professionnel de Roanne Chervé,0421078U,Perreux,Lyon,Loire,Public,,46.0257610857597,4.107659566972007
Lycée professionnel agricole de Villars - Montravel,0421210M,Villars,Lyon,Loire,Public,,45.47471762804849,4.350620178322524
"Lycée d'enseignement général, technologique et professionnel agricole de Ranne Chervé-Noirétable",0421858S,Noirétable,Lyon,Loire,Public,,45.818837362917726,3.7652500580000403
Lycée général et technologique François Mauriac-Forez,0421976V,Andrézieux-Bouthéon,Lyon,Loire,Public,119.2,45.53022390708379,4.270521009137955
Lycée professionnel privé Sainte Anne,0421979Y,Roanne,Lyon,Loire,Privé,109.2,46.03633732426127,4.0626095149588455
Ecole professionnelle privée de l'Association forézienne d'Ecoles de Production,0422052C,Saint-Etienne,Lyon,Loire,Privé,,45.41627945221119,4.384479857498315
"Lycée polyvalent privé La Salésienne - Lycée des métiers des biotechnologies, des services aux personnes et aux collectivités",0422158T,Saint-Etienne,Lyon,Loire,Privé,96.3,45.438972211515114,4.402060614850185
Ecole technique privée - Ecole de production La Plane,0422401G,Montbrison,Lyon,Loire,Privé,,,
Lycée général et technologique Simone Weil,0430021P,Le Puy-en-Velay,Clermont-Ferrand,Haute-Loire,Public,112.4,45.04881318010798,3.894879544409612
Lycée professionnel Jean Monnet - Lycée des métiers,0430024T,Le Puy-en-Velay,Clermont-Ferrand,Haute-Loire,Public,88.1,45.03691203653333,3.8869996845970816
Lycée polyvalent privé Saint Julien,0430053Z,Brioude,Clermont-Ferrand,Haute-Loire,Privé,106.6,45.29104323529904,3.3882295451355002
"Lycée d'enseignement général, technologique et professionnel agricole de Fontannes",0430112N,Fontannes,Clermont-Ferrand,Haute-Loire,Public,,45.291921400767826,3.4234133520903622
Lycée agricole privé Eugène Joubert - Yssingeaux,0430842G,Yssingeaux,Clermont-Ferrand,Haute-Loire,Privé,,45.141771366937945,4.1222265067035195
Lycée polyvalent Emmanuel Chabrier,0430953C,Yssingeaux,Clermont-Ferrand,Haute-Loire,Public,104.4,45.12962176449184,4.123309377700316
Lycée polyvalent Joubert - Emilien Maillard,0440001M,Ancenis-Saint-Géréon,Nantes,Loire-Atlantique,Public,106.5,47.37537909669732,-1.1817713728384345
Lycée Polyvalent Gaspard Monge - La Chauvinière - Lycée des métiers,0440030U,Nantes,Nantes,Loire-Atlantique,Public,110.5,47.2540961307008,-1.5729705683673285
Lycée général privé Saint Louis,0440177D,Saint-Nazaire,Nantes,Loire-Atlantique,Privé,135.3,47.26853420950614,-2.2192895608755503
Lycée général et technologique privé Saint Joseph,0440201E,Machecoul-Saint-Même,Nantes,Loire-Atlantique,Privé,120.5,46.993742201941075,-1.8235502189487176
Lycée professionnel privé Le Masle,0440282T,Saint-Nazaire,Nantes,Loire-Atlantique,Privé,104.2,47.27222992731064,-2.2059306012613367
Lycée professionnel maritime Jacques Cassard,0442092K,Nantes,Nantes,Loire-Atlantique,Public,,47.24034471009416,-1.53248985791962
Lycée agricole privé Saint-François de Labège,0311270M,Labège,Toulouse,Haute-Garonne,Privé,,43.53692005248214,1.522168392284383
Lycée professionnel Gisèle Halimi,0311324W,Toulouse,Toulouse,Haute-Garonne,Public,85,43.584518442901285,1.3975365460346079
Lycée polyvalent Edmond Rostand - Lycée des métiers de la première transformation du bois,0311334G,Bagnères-de-Luchon,Toulouse,Haute-Garonne,Public,118.6,42.7921570492819,0.5986195406197539
Ecole générale et technologique privée de photographie et d'audiovisuel,0311758T,Auzeville-Tolosane,Toulouse,Haute-Garonne,Privé,,43.528353934442976,1.4898034646193663
Lycée professionnel privé Sainte-Marie de Nevers,0311970Y,Toulouse,Toulouse,Haute-Garonne,Privé,113.2,43.60727282133117,1.4434178459200382
Lycée général Pierre Bourdieu,0312696M,Fronton,Toulouse,Haute-Garonne,Public,128.1,43.834565378736535,1.400993342349287
ECOLE PRIVE SUPERIEURE D'ESTHETIQUE SILVYA TERRADE TOULOUSE SAINT-AGNE,0312745R,Toulouse,Toulouse,Haute-Garonne,Privé,,43.60021420207189,1.4435796191735912
Lycée général et technologique Nelson Mandela,0312938A,Pibrac,Toulouse,Haute-Garonne,Public,133,43.60765387044453,1.2831506131728827
Lycée polyvalent d'Artagnan - Lycée des métiers,0320025D,Nogaro,Toulouse,Gers,Public,97.3,43.754191900515664,-0.02795020609659151
Lycée professionnel Pardailhan,0320040V,Auch,Toulouse,Gers,Public,92.4,43.6535380428107,0.5782599284624552
Lycée professionnel agricole de Mirande,0320557G,Mirande,Toulouse,Gers,Public,,43.530135187261926,0.40170998247081985
Institut agricole privé de Masseube,0320633P,Masseube,Toulouse,Gers,Privé,,43.41079797279392,0.5853900071362458
Lycée général et technologique Gisèle Halimi,0330010G,Bazas,Bordeaux,Gironde,Public,111,44.433276909488676,-0.21405325574721157
Lycée général Montesquieu,0330022V,Bordeaux,Bordeaux,Gironde,Public,126.4,44.850302703767035,-0.5820502060798751
Lycée polyvalent Gustave Eiffel,0330028B,Bordeaux,Bordeaux,Gironde,Public,123.8,44.82891084178311,-0.564361965386203
Lycée professionnel Les Chartrons,0331460H,Bordeaux,Bordeaux,Gironde,Public,86,44.85585713131863,-0.5733044623896109
Lycée général privé Saint Elme,0331488N,Arcachon,Bordeaux,Gironde,Privé,134.7,44.65537882486955,-1.15258186496156
Lycée général et technologique privé L'Assomption Ste Clotilde,0331495W,Bordeaux,Bordeaux,Gironde,Privé,138.6,44.8520192458742,-0.5945713839434625
Ecole technique privée d'Esthétique Françoise B - Groupe Sylvia Terrade,0331557N,Bordeaux,Bordeaux,Gironde,Privé,,44.85904003849235,-0.5713190002802311
Lycée technologique privé Bel Orme,0331591A,Bordeaux,Bordeaux,Gironde,Privé,122.7,44.849789279906226,-0.5941612521143088
Lycée professionnel Marcel Dassault,0331668J,Mérignac,Bordeaux,Gironde,Public,92.4,44.83486785364598,-0.6489183011970837
Lycée général et technologique Fernand Daguin,0331760J,Mérignac,Bordeaux,Gironde,Public,122.7,44.83682516582882,-0.6499132105541034
"Lycée polyvalent hôtelier Gascogne - Lycée des métiers de l'hôtellerie, de la gastronomie et du tourisme",0332192D,Talence,Bordeaux,Gironde,Public,111.3,44.79617208736641,-0.5934223515522604
Lycée professionnel Philadelphe de Gerde - Lycée des métiers de l'économie responsable et des métiers de la transition numérique et énergétique,0332345V,Pessac,Bordeaux,Gironde,Public,90.7,44.78732507978232,-0.6524476036756898
Lycée polyvalent Philippe Cousteau,0332346W,Saint-André-de-Cubzac,Bordeaux,Gironde,Public,92.4,44.991338011584176,-0.4500091815689921
Lycée agricole privé Agir - site de Langon,0332376D,Langon,Bordeaux,Gironde,Privé,,44.554242170270705,-0.24856059294009034
Lycée professionnel Alphonse Beau de Rochas - Lycée des métiers de l'automobile,0332445D,Bordeaux,Bordeaux,Gironde,Public,96,44.86652816851035,-0.5675028657905554
Ecole secondaire privée Notre Dame du Rosaire,0332601Y,Saint-Macaire,Bordeaux,Gironde,Privé,,44.56384135642509,-0.2315875442692299
Lycée général et technologique Pape Clément,0332722E,Pessac,Bordeaux,Gironde,Public,128.8,44.808566903215194,-0.6509307771425563
Lycée Général et Technologique EIN GEDI - Etablissement expérimental et innovant au service des jeunes ayant une déficience intellectuelle,0333537R,Bordeaux,Bordeaux,Gironde,Privé,,44.825568631462524,-0.5883204364671979
"Lycée polyvalent Jean Moulin, Lycée des métiers de l'industrie et du sanitaire et social",0340011C,Béziers,Montpellier,Hérault,Public,91.9,43.341574183041544,3.234960537620778
Lycée général et technologique René Gosse,0340023R,Clermont-l'Hérault,Montpellier,Hérault,Public,113.3,43.62619062281289,3.4319695002429342
Lycée polyvalent Louis Feuillade,0340030Y,Lunel,Montpellier,Hérault,Public,98.7,43.67093719748441,4.122410515711992
Lycée général et technologique Joffre,0340038G,Montpellier,Montpellier,Hérault,Public,132.4,43.61207825608604,3.884709803165587
Lycée polyvalent Jules Guesde,0340040J,Montpellier,Montpellier,Hérault,Public,107.3,43.61171607580439,3.847970077404897
Lycée polyvalent Jean Mermoz,0340042L,Montpellier,Montpellier,Hérault,Public,105,43.61163282220374,3.890880204057631
Lycée général et technologique privé La Trinité,0340871M,Béziers,Montpellier,Hérault,Privé,133.9,43.34629188133018,3.21988965021648
"Lycée professionnel privé Turgot, lycée des métiers de la santé et du social",0340920R,Montpellier,Montpellier,Hérault,Privé,114.6,43.63749065391683,3.832860282169425
Ecole professionnelle privée Silvya Terrade Béziers,0341123L,Béziers,Montpellier,Hérault,Privé,,43.36086100693382,3.2470001785960556
Lycée agricole privé de Capestang,0341471P,Capestang,Montpellier,Hérault,Privé,,43.327593462420545,3.0479799963976117
Ecole professionnelle privée Silvya Terrade Montpellier,0341651K,Montpellier,Montpellier,Hérault,Privé,,43.605030127830645,3.87813976873167
Ecole privée bilingue internationale,0342019K,Baillargues,Montpellier,Hérault,Privé,,43.64952764780408,4.004960081993629
Ecole du second degré professionnelle privée Adonis,0342264B,Montpellier,Montpellier,Hérault,Privé,,43.60671474160654,3.8787896643848705
"Lycée général, Cité scolaire Françoise Combes",0342266D,Montpellier,Montpellier,Hérault,Public,117.7,43.62051545883088,3.8785601443017943
Lycée d'enseignement général privé Saint-Guilhem,0342298N,Clermont-l'Hérault,Montpellier,Hérault,Privé,125.8,43.62965446659364,3.440580166640524
L'école des métiers de la coiffure (Ecole du second degré professionnel privée),0342333B,Jacou,Montpellier,Hérault,Privé,,43.66132479737221,3.903976862094507
Ecole privée Lutherie Lès Maguelone (Ecole second degré prof privée ),0342383F,Villeneuve-lès-Maguelone,Montpellier,Hérault,Privé,,43.53256413638457,3.862280493380302
Lycée général et technologique Beaumont - Lycée des métiers,0350022J,Redon,Rennes,Ille-et-Vilaine,Public,110.6,47.65518979610839,-2.0929503096429127
Lycée général François-René de Chateaubriand,0350710G,Rennes,Rennes,Ille-et-Vilaine,Public,139.1,48.1233633632789,-1.6494796949846533
"Lycée polyvalent privé Marcel Callo - Lycée des métiers de l'industrie, de l'automobile et de l'aéronautique",0350791V,Redon,Rennes,Ille-et-Vilaine,Privé,109.5,47.65480868230408,-2.080959469427167
Lycée professionnel agricole de Saint-Aubin-du-Cormier,0350940G,Saint-Aubin-du-Cormier,Rennes,Ille-et-Vilaine,Public,,48.268577459188606,-1.4264804730246305
Lycée agricole privé Saint-Exupéry de Rennes,0351047Y,Rennes,Rennes,Ille-et-Vilaine,Privé,,48.131899007420806,-1.7111699381214776
Lycée professionnel Coetlogon,0351878B,Rennes,Rennes,Ille-et-Vilaine,Public,87,48.12226809845311,-1.6935999776082487
Lycée polyvalent privé La Providence,0351930H,Montauban-de-Bretagne,Rennes,Ille-et-Vilaine,Privé,117.4,48.1984832148307,-2.0453494527027036
Lycée général et technologique Victor et Hélène Basch,0352009U,Rennes,Rennes,Ille-et-Vilaine,Public,117.3,48.126584334179064,-1.6893397892166615
Ecole professionnelle privée de coiffure et d'esthétique Silvya Terrade Solférino,0352267Z,Rennes,Rennes,Ille-et-Vilaine,Privé,,48.10427078014932,-1.6691603554365275
Lycee general et technologique Francois Rene de Chateaubriand,0352533N,Combourg,Rennes,Ille-et-Vilaine,Public,117.8,48.41525130917533,-1.7416202300524102
Ecole internationale de coiffure et d'esthétique Silvya Terrade,0352804H,Fougères,Rennes,Ille-et-Vilaine,Privé,,48.3529812886534,-1.1964595662605197
Lycée général Rollinat,0360002G,Argenton-sur-Creuse,Orléans-Tours,Indre,Public,110.5,46.588916467517606,1.511839645859726
Lycée polyvalent Prieur de La Côte d'Or,0210003P,Auxonne,Dijon,Côte-d'Or,Public,102.1,47.19513685953593,5.387180592809431
Lycée général et technologique Stephen Liégeard,0210012Z,Brochon,Dijon,Côte-d'Or,Public,119.3,47.238025654093235,4.972769658939874
Lycée général et technologique Montchapet,0210017E,Dijon,Dijon,Côte-d'Or,Public,115.5,47.33538637776854,5.01750990006678
Lycée agricole privé de Saulieu,0211504W,Saulieu,Dijon,Côte-d'Or,Privé,,47.27733199610273,4.231529540578807
Lycée polyvalent Marey,0212045J,Beaune,Dijon,Côte-d'Or,Public,106.9,47.02991281909782,4.850879519017569
Lycée professionnel Jules Verne - Lycée des métiers de l'industrie et du commerce,0220019B,Guingamp,Rennes,Côtes-d'Armor,Public,87.5,48.5539126793412,-3.1497397660070847
Lycée général et technologique Félix Le Dantec,0220023F,Lannion,Rennes,Côtes-d'Armor,Public,125.4,48.732064075535824,-3.4500497901101643
Lycée professionnel Rosa Parks - Lycée des métiers des services à la personne et de la sécurité,0220186H,Rostrenen,Rennes,Côtes-d'Armor,Public,93.4,48.23397135018995,-3.308779800622135
Lycée polyvalent Kerraoul,0221571N,Paimpol,Rennes,Côtes-d'Armor,Public,106.9,48.78105692591972,-3.0582401299432918
Lycée général et technologique prive Saint Joseph,0221589H,Loudéac,Rennes,Côtes-d'Armor,Privé,103.8,48.17426627870731,-2.7501905338796524
Lycée professionnel maritime Pierre Loti,0221624W,Paimpol,Rennes,Côtes-d'Armor,Public,,48.784198748753695,-3.0477006091604877
Lycée général et technologique Eugène Jamot,0230002C,Aubusson,Limoges,Creuse,Public,109.6,45.95346662648151,2.166800445264207
Lycée professionnel Jean Jaurès,0230003D,Aubusson,Limoges,Creuse,Public,93.7,45.95239283741987,2.1742506233859387
"Lycée professionnel Louis Gaston Roussillat - Lycée des métiers de la sécurité, de l'électrotechnique, de la maintenance de véhicules et matériels",0230027E,Saint-Vaury,Limoges,Creuse,Public,88.8,46.2043179642378,1.755740584237162
Lycée professionnel Hélène Duc - Lycée des métiers de l'industrie Sud Périgord Hélène Duc,0240006B,Bergerac,Bordeaux,Dordogne,Public,87.2,44.85427894275058,0.49442362382056304
Lycée professionnel Porte d'Aquitaine,0240039M,Thiviers,Bordeaux,Dordogne,Public,94.1,45.425315210472384,0.9263708703680864
Lycée professionnel privé Sainte Marthe - Saint Front,0240094X,Bergerac,Bordeaux,Dordogne,Privé,96.4,44.86015028827046,0.4949822951773704
Lycée professionnel Léonard de Vinci - Lycée des métiers des énergies et des productions en transitions,0240984P,Périgueux,Bordeaux,Dordogne,Public,90.3,45.198751784122784,0.6766540627856404
Lycée agricole privé Le Cluzeau de Sigoulès,0241033T,Sigoulès-et-Flaugeac,Bordeaux,Dordogne,Privé,,44.76512968529367,0.4182072588605241
Lycée professionnel Jouffroy d'Abbans,0250063H,Baume-les-Dames,Besançon,Doubs,Public,81.8,47.34956760159781,6.350400573622814
LGT PR St Paul - Lycée des métiers de la conception de produits et de l'aménagement de l'habitat,0251021Z,Besançon,Besançon,Doubs,Privé,126.5,47.24534711534769,6.036720590873194
Lycée professionnel privé Saint Bénigne,0251112Y,Pontarlier,Besançon,Doubs,Privé,101.1,46.90155885695144,6.355929455079213
Lycée agricole privé Jeanne d'Arc de Pontarlier,0251481Z,Pontarlier,Besançon,Doubs,Privé,,46.903915970059806,6.357549683349078
LP PR St Joseph - Lycée des métiers de la conception de produits et de l'aménagement de l'habitat,0251592V,Besançon,Besançon,Doubs,Privé,108.1,47.24589106141387,6.0346305266422275
LYCEE ALTERNATIF BESANCON,0252049S,Besançon,Besançon,Doubs,Privé,,,
Lycée général et technologique Augustin Fresnel,0270003G,Bernay,Normandie,Eure,Public,105.4,49.0849397534747,0.5928195002692618
Lycée général et technologique Aristide Briand,0270016W,Evreux,Normandie,Eure,Public,103.4,49.01670093304808,1.1562496091952008
Lycée polyvalent Louise Michel,0270026G,Gisors,Normandie,Eure,Public,102,49.28598667224969,1.7799600835649738
Lycée polyvalent les Fontenelles,0270029K,Louviers,Normandie,Eure,Public,107,49.20927759687627,1.1563117042020414
Lycée général privé Ecole des Roches,0271051W,Verneuil d'Avre et d'Iton,Normandie,Eure,Privé,143.5,48.74125303097715,0.8936096571751003
Lycée polyvalent privé Notre Dame - Saint François,0271070S,Evreux,Normandie,Eure,Privé,112,49.016343599958255,1.148869855847332
Lycée professionnel privé Sainte Agnès,0271073V,Vernon,Normandie,Eure,Privé,107.8,49.090909282217375,1.4801498958487287
Lycée professionnel privé Saint Ouen,0271081D,Pont-Audemer,Normandie,Eure,Privé,101.8,49.35170916582673,0.49593005503866655
Lycée général et technologique privé Jeanne d'Arc - Saint Anselme,0271282X,Bernay,Normandie,Eure,Privé,113,49.0949008364516,0.6047301835013287
Lycée général et technologique Jacques Prévert,0271431J,Pont-Audemer,Normandie,Eure,Public,112.9,49.350552269520236,0.5221309459984927
Lycée général et technologique Marc Bloch,0271582Y,Val-de-Reuil,Normandie,Eure,Public,100.8,49.2682488269445,1.2026898590201793
Lycée polyvalent Jean Moulin,0271585B,Les Andelys,Normandie,Eure,Public,95.6,49.24939546460007,1.4340897747556332
Ecole de production des semeurs,0271889G,Mesnil-en-Ouche,Normandie,Eure,Privé,,49.01166186026478,0.7066852782967522
Lycée polyvalent Edouard Branly - Lycée des métiers des sciences et de l'industrie,0280021W,Dreux,Orléans-Tours,Eure-et-Loir,Public,102.3,48.73089785965829,1.3783688238619873
Lycée général et technologique privé Notre Dame,0280665W,Chartres,Orléans-Tours,Eure-et-Loir,Privé,138.7,48.45041000419113,1.4940606334167357
Lycée professionnel privé Notre Dame,0280684S,Saint-Maurice-Saint-Germain,Orléans-Tours,Eure-et-Loir,Privé,88.3,48.49300529506262,1.0889897863202975
Lycée professionnel privé Notre Dame,0280691Z,Chartres,Orléans-Tours,Eure-et-Loir,Privé,,48.4511456741978,1.4930399609703275
Lycée professionnel Elsa Triolet,0280864M,Lucé,Orléans-Tours,Eure-et-Loir,Public,89.7,48.44041113578513,1.4636397241383803
Lycée général et technologique Fulbert,0281047L,Chartres,Orléans-Tours,Eure-et-Loir,Public,107.7,48.44571828486869,1.5081499052757152
Lycée agricole privé Notre-Dame de La Loupe,0281101V,La Loupe,Orléans-Tours,Eure-et-Loir,Privé,,48.49324786998856,1.0891894442509686
Lycée général de L'Iroise,0290009C,Brest,Rennes,Finistère,Public,126.7,48.40117266212533,-4.4639516314435195
Lycée polyvalent Vauban,0290012F,Brest,Rennes,Finistère,Public,109.5,48.406924920995195,-4.481350147110808
Lycée polyvalent Paul Sérusier,0290022S,Carhaix-Plouguer,Rennes,Finistère,Public,96.8,48.27907860884908,-3.5516305894704203
Lycée général et technologique René Laennec,0290062K,Pont-l'Abbé,Rennes,Finistère,Public,116,47.860529680280266,-4.233390571279689
Lycée technologique Jean Chaptal,0290070U,Quimper,Rennes,Finistère,Public,101,47.99128604588474,-4.119080627235763
Lycée professionnel Roz Glas,0290078C,Quimperlé,Rennes,Finistère,Public,92.5,47.88565418190689,-3.554949478857595
Lycée général et technologique Cornouaille,0290098Z,Quimper,Rennes,Finistère,Public,114.1,47.988708028949134,-4.1242616116539885
Lycée général et technologique privé Sainte Thérèse,0290171D,Quimper,Rennes,Finistère,Privé,129.5,47.98103144766769,-4.095710556596959
Lycée général et technologique privé Notre-Dame du Kreisker,0290177K,Saint-Pol-de-Léon,Rennes,Finistère,Privé,119.2,48.68149600920377,-3.9883596164752952
Lycée général privé Saint Esprit,0290198H,Landivisiau,Rennes,Finistère,Privé,108.7,48.51324329450774,-4.0802200709131125
Lycée polyvalent privé Notre-Dame de Kerbertrand,0290206S,Quimperlé,Rennes,Finistère,Privé,121.5,47.87174082782485,-3.5611641959309783
Lycée général privé Estran Charles de Foucauld,0290336H,Brest,Rennes,Finistère,Privé,131.9,48.403306660413,-4.4591198803784415
"Lycée d'enseignement général, technologique et professionnel agricole de Châteaulin",0290341N,Châteaulin,Rennes,Finistère,Public,,48.19198421837894,-4.087239832198621
Lycée agricole privé Le Nivot de Lopérec,0291208F,Lopérec,Rennes,Finistère,Privé,,48.31337512595565,-4.0083106424602715
Lycée agricole privé Sainte-Marie de Plouigneau,0291575E,Plouigneau,Rennes,Finistère,Privé,,48.56371702224307,-3.6982798698498995
Centre d'instruction naval Ecole de Maistrance,0291758D,Brest,Rennes,Finistère,Public,,48.39042762250076,-4.4860602260253994
Lycée général et technologique Dhuoda,0300026R,Nîmes,Montpellier,Gard,Public,103.6,43.827597769854115,4.355989886656224
"Lycée professionnel privé Sainte Marie, lycée des métiers de la santé et des procédés de la chimie et de l'eau",0300106C,Bagnols-sur-Cèze,Montpellier,Gard,Privé,96.3,44.161341153653176,4.62367961983436
Lycée professionnel privé Pasteur,0300109F,La Grand-Combe,Montpellier,Gard,Privé,96.1,44.210597365173584,4.028149887242497
"Lycée privé de la CCI Gard, lycée des métiers de la vente et des services aux entreprises",0300112J,Nîmes,Montpellier,Gard,Privé,99.1,43.83281559491216,4.368860248460036
Lycée polyvalent Albert Einstein,0300950V,Bagnols-sur-Cèze,Montpellier,Gard,Public,102.7,44.161732020049385,4.6117063195147985
"Lycée professionnel Jules Raimu, Lycée des métiers de la maintenance, du numérique et de la conduite routière",0301270T,Nîmes,Montpellier,Gard,Public,83,43.819446325065925,4.3302597476143685
Ecole secondaire professionnelle privée Espace Bourgier,0301527X,Nîmes,Montpellier,Gard,Privé,,43.82827427008537,4.35926940108269
Lycée général et technologique Jean Vilar,0301722J,Villeneuve-lès-Avignon,Montpellier,Gard,Public,123,43.980979359209876,4.79051993015492
Ecole du second degré général et technologique privée Scholae,0301800U,Saint-Hippolyte-du-Fort,Montpellier,Gard,Privé,,43.980787433014754,3.851120212060205
"Ecole second degré général privée, Institut Jean Paul II",0301805Z,Uzès,Montpellier,Gard,Privé,,44.01121600517666,4.4067500892698765
OneSchool Global Alès Campus (Lycée professionnel),0301806A,Vézénobres,Montpellier,Gard,Privé,,44.06806329392198,4.1158894929791865
Lycée polyvalent Lucie Aubrac,0301862L,Sommières,Montpellier,Gard,Public,120.3,43.7774617011605,4.067523627131194
Lycée polyvalent Raymond Naves,0310040A,Toulouse,Toulouse,Haute-Garonne,Public,108.8,43.63826281869856,1.4627798494426274
Lycée polyvalent Déodat de Séverac - Lycée des métiers de l'ingénierie et de l'industrie du futur,0310044E,Toulouse,Toulouse,Haute-Garonne,Public,105.9,43.58914042072771,1.4264598048930772
Lycée professionnel Roland Garros - Lycée des métiers de la maintenance mécanique et de la productique,0310052N,Toulouse,Toulouse,Haute-Garonne,Public,86.5,43.629556204098996,1.4286998177797523
Lycée professionnel Renée Bonnet,0310054R,Toulouse,Toulouse,Haute-Garonne,Public,94.4,43.55588558657076,1.4681194455528364
Lycée polyvalent Haut-Barr - Lycée des métiers,0672534R,Saverne,Strasbourg,Bas-Rhin,Public,116.5,48.73063700160994,7.351840449998769
Lycée général et technologique Marc Bloch,0672604S,Bischheim,Strasbourg,Bas-Rhin,Public,102,48.61674014965225,7.766053867630057
Lycée polyvalent Louis Marchal,0672615D,Molsheim,Strasbourg,Bas-Rhin,Public,107.4,48.536940977014304,7.500843676938967
Lycée Général Technologique Yunus Emre,0673089U,Strasbourg,Strasbourg,Bas-Rhin,Privé,,48.588696245571825,7.711612659424537
"Lycée d'enseignement général, technologique et professionnel agricole de Rouffach",0680003J,Rouffach,Strasbourg,Haut-Rhin,Public,,47.95521662600422,7.300763236712241
Lycée général et technologique Alfred Kastler,0680015X,Guebwiller,Strasbourg,Haut-Rhin,Public,112.7,47.90688203540366,7.203692775630041
Lycée général et technologique Ribeaupierre,0680060W,Ribeauvillé,Strasbourg,Haut-Rhin,Public,117.6,48.19756451167921,7.3156400702709785
Lycée général et technologique Lambert,0681761V,Mulhouse,Strasbourg,Haut-Rhin,Public,102.8,47.75447687952525,7.330082336680893
Lycée technologique privé Saint Joseph de Cluny,0681793E,Mulhouse,Strasbourg,Haut-Rhin,Privé,102.1,47.75093413608674,7.347100206603439
"Lycée polyvalent E. Bugatti - Lycée des métiers de l'automobile, du transport et de la logistique",0681809X,Illzach,Strasbourg,Haut-Rhin,Public,79.9,47.76222891957005,7.367715834634542
Lycée polyvalent Lazare de Schwendi - Lycée des métiers,0681817F,Ingersheim,Strasbourg,Haut-Rhin,Public,86.5,48.09070520351665,7.2965480166652235
Lycée polyvalent Martin Schongauer,0681882B,Colmar,Strasbourg,Haut-Rhin,Public,83.5,48.069509044965976,7.351275574920198
Lycée général et technologique privé Institution Don Bosco,0681917P,Wittenheim,Strasbourg,Haut-Rhin,Privé,106.5,47.81280194873048,7.34066690588559
Lycée d'enseignement général privé Institution Champagnat,0682072H,Issenheim,Strasbourg,Haut-Rhin,Privé,123.3,47.903087367014,7.254359209044442
Lycée professionnel Barthélémy Thimonnier,0690003D,L'Arbresle,Lyon,Rhône,Public,94,45.834324228318415,4.613050900510914
Lycée professionnel Danielle Casanova - Lycée des métiers du cuir et des services,0690018V,Givors,Lyon,Rhône,Public,81.9,45.59404718699999,4.766439826799749
Lycée général et technologique Auguste et Louis Lumière,0690035N,Lyon 8e  Arrondissement,Lyon,Rhône,Public,93.9,45.736111824015936,4.862068356620208
Lycée professionnel Jacques de Flesselles - Lycée des métiers du génie électrique et de la bureautique,0690043X,Lyon 1er Arrondissement,Lyon,Rhône,Public,83.6,45.77110128730322,4.826625580277794
Lycée professionnel Jean Lurçat,0690045Z,Lyon 8e  Arrondissement,Lyon,Rhône,Public,78.3,45.73232685425446,4.8629994310375295
Lycée polyvalent Claude Bernard,0690097F,Villefranche-sur-Saône,Lyon,Rhône,Public,100.3,45.98934570178001,4.712028447764924
Lycée polyvalent Frédéric Fays - Lycée des métiers des techniques de conception et de production,0690103M,Villeurbanne,Lyon,Rhône,Public,88,45.761936065542784,4.904947114549766
Lycée professionnel Emile Béjuit - Lycée des métiers de l'automobile et du transport routier,0690105P,Bron,Lyon,Rhône,Public,81.8,45.75136218189384,4.905798563027197
Lycée professionnel Alfred de Musset - Lycée des métiers de la logistique et du transport - Lycée des métiers de la maintenance industrielle,0690107S,Villeurbanne,Lyon,Rhône,Public,77.7,45.756878439576354,4.9210855575441945
Lycée d'enseignement général et technologique agricole de Lyon - Dardilly,0690250X,Dardilly,Lyon,Rhône,Public,,45.81422431782751,4.770043077927613
Lycée professionnel agricole de Belleville,0690275Z,Belleville-en-Beaujolais,Lyon,Rhône,Public,,46.116284158028634,4.70522260519587
"Lycée professionnel Joseph-Marie Jacquard - Lycée des métiers des services à la personne, services à l'entreprise, métiers de la mode",0690281F,Oullins-Pierre-Bénite,Lyon,Rhône,Public,84,45.71189515465239,4.810123605009669
Lycée professionnel privé Les Cordeliers - Lycée des métiers de la santé et du social,0631408N,Clermont-Ferrand,Clermont-Ferrand,Puy-de-Dôme,Privé,106.6,45.79440108176439,3.113080147965042
Lycée agricole privé de Vernet-la-varenne,0631560D,Le Vernet-Chaméane,Clermont-Ferrand,Puy-de-Dôme,Privé,,45.47536561886124,3.450951460037106
Lycée général et technologique René Descartes,0631861F,Cournon-d'Auvergne,Clermont-Ferrand,Puy-de-Dôme,Public,121.1,45.74467799698602,3.2117593658249417
"Lycée Innovant Ambition Numérique, Lycée Virlogeux Riom",0632040A,Riom,Clermont-Ferrand,Puy-de-Dôme,Public,,45.88680059613174,3.1166299505514474
"Hall 32, Clermont-Ferrand",0632052N,Clermont-Ferrand,Clermont-Ferrand,Puy-de-Dôme,Privé,,45.78987134163692,3.104970566199572
Lycée polyvalent Cantau - Lycée des métiers du bâtiment,0640001D,Anglet,Bordeaux,Pyrénées-Atlantiques,Public,114.6,43.47581153106424,-1.5111723465138018
Lycée professionnel AIZPURDI,0640028H,Hendaye,Bordeaux,Pyrénées-Atlantiques,Public,88,43.35687011417718,-1.774299266611138
Lycée professionnel Jean-Pierre Champo - Lycée des métiers de la maintenance,0640040W,Mauléon-Licharre,Bordeaux,Pyrénées-Atlantiques,Public,94.9,43.22410763446807,-0.8775867838102834
Lycée professionnel du 4 septembre 1870 - Lycée des métiers du commerce et des services,0640050G,Oloron-Sainte-Marie,Bordeaux,Pyrénées-Atlantiques,Public,85.4,43.197369569258136,-0.6091844258854477
Lycée professionnel Pierre et Marie Curie,0640079N,Mourenx,Bordeaux,Pyrénées-Atlantiques,Public,95.7,43.36873643063352,-0.6249904033891093
Lycée général privé le beau rameau,0640122K,Igon,Bordeaux,Pyrénées-Atlantiques,Privé,114.7,43.15821228794494,-0.23123138128221427
Lycée général et technologique privé Saint Joseph,0640137B,Ustaritz,Bordeaux,Pyrénées-Atlantiques,Privé,115.9,43.401972936430504,-1.4581126952981336
Lycée professionnel agricole d'Oloron Sainte-Marie,0640254D,Oloron-Sainte-Marie,Bordeaux,Pyrénées-Atlantiques,Public,,43.169843792918115,-0.5927626820249434
Lycée général et technologique privé Stella Maris,0641441U,Anglet,Bordeaux,Pyrénées-Atlantiques,Privé,113.1,43.50186887337713,-1.524028749787056
Lycée agricole privé de Baudreix - site de Nay,0641534V,Baudreix,Bordeaux,Pyrénées-Atlantiques,Privé,,43.2050860676368,-0.2575639312224719
Lycée agricole privé Armand David de Hasparren,0641535W,Hasparren,Bordeaux,Pyrénées-Atlantiques,Privé,,43.3811703856896,-1.3049882650575182
Lycée professionnel privé le beau rameau Igon,0641665M,Igon,Bordeaux,Pyrénées-Atlantiques,Privé,102.4,43.15818107501583,-0.23119151598719764
Ecole technique privée Coiffure Centre Jorlis,0641807S,Anglet,Bordeaux,Pyrénées-Atlantiques,Privé,,43.500504665229904,-1.495595214664943
Lycée général et technologique Jacques Monod,0641839B,Lescar,Bordeaux,Pyrénées-Atlantiques,Public,120.6,43.33277652690051,-0.43550419362019277
Lycée polyvalent de Navarre,0641844G,Saint-Jean-Pied-de-Port,Bordeaux,Pyrénées-Atlantiques,Public,104.8,43.16609743701028,-1.2306530618898242
Lycée général privé Peyramale Saint-Joseph,0650058K,Lourdes,Toulouse,Hautes-Pyrénées,Privé,108.1,43.094991669450906,-0.044230032814543574
Lycée technologique privé Pradeau-La Sède Saint-Pierre,0650065T,Tarbes,Toulouse,Hautes-Pyrénées,Privé,113.9,43.236614674159256,0.06788094603419989
Lycée polyvalent privé Notre-Dame de Garaison,0650885J,Monléon-Magnoac,Toulouse,Hautes-Pyrénées,Privé,116.5,43.221802000800714,0.5062284157453536
Lycée polyvalent privé Sainte Louise-De-Marillac,0660077A,Perpignan,Montpellier,Pyrénées-Orientales,Privé,107.7,42.68642815793932,2.8818895641942133
Lycée agricole privé le Mas Blanc de Bourg-Madame,0660631C,Bourg-Madame,Montpellier,Pyrénées-Orientales,Privé,,42.441100898510996,1.9467696686000666
"Ecole secondaire professionnelle privée, Sud Formation CCI Perpignan",0660876U,Perpignan,Montpellier,Pyrénées-Orientales,Privé,,42.673346034276996,2.8525559028198963
"Lycée technologique, annexe du lycée Pablo Picasso",0660907C,Théza,Montpellier,Pyrénées-Orientales,Public,102.9,42.646065960158396,2.936999681801499
Lycée général privé Saint Pierre de la Mer,0660931D,Saint-Cyprien,Montpellier,Pyrénées-Orientales,Privé,132.6,42.62138623424841,3.0116303619049005
Lycée général et technologique Robert Schuman,0670020H,Haguenau,Strasbourg,Bas-Rhin,Public,112.9,48.814393993785174,7.796681973194672
Lycée général et technologique Docteur Koeberlé,0670071N,Sélestat,Strasbourg,Bas-Rhin,Public,114.3,48.26305112957781,7.456954571564161
Lycée général Fustel de Coulanges,0670079X,Strasbourg,Strasbourg,Bas-Rhin,Public,132.4,48.581551981144216,7.752112369769001
Lycée polyvalent Louis Couffignal - Lycée des métiers,0670085D,Strasbourg,Strasbourg,Bas-Rhin,Public,97.6,48.56091058363956,7.747041357357943
Lycée polyvalent Stanislas - Lycée des métiers,0670114K,Wissembourg,Strasbourg,Bas-Rhin,Public,106.7,49.03522308610011,7.960051020913197
Ecole Aquiba (Lycée général privé),0671615S,Strasbourg,Strasbourg,Bas-Rhin,Privé,134.5,48.589855680782456,7.753071692905849
Lycée professionnel privé La Bucaille,0501788X,Cherbourg-en-Cotentin,Normandie,Manche,Privé,105,49.6398488045828,-1.6277906560930724
Lycée professionnel privé Institution Notre Dame,0501941N,Carentan-les-Marais,Normandie,Manche,Privé,96.3,49.30492894239865,-1.247459855206677
Lycée professionnel Thomas Pesquet,0502009M,Coutances,Normandie,Manche,Public,92.6,49.04242171745987,-1.4376402647079458
Lycée général Georges Clemenceau,0510031G,Reims,Reims,Marne,Public,119.4,49.25073432345288,4.046330326900803
"Lycée professionnel Raymond KOPA - Lycée des métiers de l'agencement, de la topographie et de la commercialisation",0510037N,Reims,Reims,Marne,Public,81.6,49.24965875528182,4.058829555724916
Lycée général privé Saint Joseph,0511140M,Reims,Reims,Marne,Privé,141.8,49.247044020034096,4.035980624193684
"Lycée d'enseignement général, technologique et professionnel agricole d'Avize",0511219Y,Avize,Reims,Marne,Public,,48.968560821913194,4.00782932099321
"Lycée polyvalent Georges Brière - Lycée des métiers de l'industrie, de la défense et du graphisme",0511884W,Reims,Reims,Marne,Public,88.9,49.22398519953693,4.027090434385106
Micro Lycée du Lycée Polyvalent Georges Brière,0512163Z,Reims,Reims,Marne,Public,,49.22369097053217,4.027750337502952
Lycée polyvalent Saint-Exupéry - Lycée des métiers de la personne et du bien vivre,0520027X,Saint-Dizier,Reims,Haute-Marne,Public,85,48.643466753881505,4.9638204951459
LYCEE POLYVALENT EDME BOUCHARDON,0520844K,Chaumont,Reims,Haute-Marne,Public,98.1,48.10656571749877,5.147709702192836
Lycée polyvalent Charles de Gaulle - Lycée des métiers du design graphique et de la transformation du bois,0521032P,Chaumont,Reims,Haute-Marne,Public,108.4,48.07304597959165,5.1469802892174785
Ecole professionnelle privée de production Métaltech,0521134A,Nogent,Reims,Haute-Marne,Privé,,48.041272618830256,5.352745542929102
Lycée général et technologique Ambroise Paré,0530010Y,Laval,Nantes,Mayenne,Public,111.2,48.06593887069267,-0.7763004705105594
Lycée professionnel Robert Buron,0530013B,Laval,Nantes,Mayenne,Public,87.2,48.06730596925909,-0.7588067134437035
Lycée général et technologique Lavoisier,0530016E,Mayenne,Nantes,Mayenne,Public,113.2,48.30546506348627,-0.628930620415273
Ecole technique privée Groupe Silvya Terrade Laval,0530074T,Laval,Nantes,Mayenne,Privé,,48.071202957397226,-0.7631296830865011
Lycée agricole privé de Rochefeuille - site d'Ernee,0530815Y,Ernée,Nantes,Mayenne,Privé,,48.304365355583585,-0.941330194015649
Lycée agricole privé de Rochefeuille - site de Mayenne,0530818B,Mayenne,Nantes,Mayenne,Privé,,48.31714621549721,-0.6231598650544556
Lycée polyvalent Raoul Vadepied,0530949U,Evron,Nantes,Mayenne,Public,97.8,48.15215604323232,-0.3993806372392612
Lycée polyvalent Alfred Mézières,0540030P,Longwy,Nancy-Metz,Meurthe-et-Moselle,Public,95.4,49.52139215572035,5.759200415497841
Lycée professionnel La Tournelle - Lycée des métiers du sanitaire et du social,0540060X,Pont-Saint-Vincent,Nancy-Metz,Meurthe-et-Moselle,Public,79.6,48.60275021251534,6.100250680617055
Lycée Marie Marvingt - Lycée des métiers des services et du commerce,0540061Y,Tomblaine,Nancy-Metz,Meurthe-et-Moselle,Public,82.2,48.69608368701493,6.2162704137512
Etablissement régional d'enseignement adapté François Richard JOUBERT,0541268K,Flavigny-sur-Moselle,Nancy-Metz,Meurthe-et-Moselle,Public,,48.56381469770869,6.1809897405190535
Lycée général et technologique privé des Récollets,0541309E,Longwy,Nancy-Metz,Meurthe-et-Moselle,Privé,109.5,49.51753422970418,5.765990664360251
Etablissement régional d'enseignement adapté Hubert Martin,0541338L,Val de Briey,Nancy-Metz,Meurthe-et-Moselle,Public,,49.26094258170972,5.931380396082084
Lycée professionnel privé Marie Immaculée,0541364P,Nancy,Nancy-Metz,Meurthe-et-Moselle,Privé,101.7,48.68210623610392,6.183919792139862
Lycée polyvalent Clos Maire,0210006T,Beaune,Dijon,Côte-d'Or,Public,113.8,47.02987741957446,4.838099695327464
Lycée général et technologique Carnot,0210015C,Dijon,Dijon,Côte-d'Or,Public,131.5,47.3240944612801,5.047770644841433
Lycée général privé Notre Dame,0211074D,Dijon,Dijon,Côte-d'Or,Privé,143.5,47.3289210393171,5.016449651162063
Lycée Professionnel Maximilien de Robespierre,0623864N,Lens,Lille,Pas-de-Calais,Public,79.3,50.43957792762937,2.7964398974781792
Lycée polyvalent Les Marcs d'Or,0211986V,Dijon,Dijon,Côte-d'Or,Public,98.4,47.31733971756672,4.992439443275647
Lycée Les Bambous,0212277L,Agencourt,Dijon,Côte-d'Or,Privé,,47.128341811817535,4.977560343811822
Ecole de production industrie 21,0212284U,Dijon,Dijon,Côte-d'Or,Privé,,47.35817191032815,5.044617320129847
Lycée de notre Dame de Cîteaux,0212299K,Saint-Nicolas-lès-Cîteaux,Dijon,Côte-d'Or,Privé,,47.12314759999918,5.073702495133081
Lycée polyvalent Fulgence Bienvenüe,0220027K,Loudéac,Rennes,Côtes-d'Armor,Public,93.6,48.18485419441327,-2.7593795968754673
Lycée général et technologique privé Notre-Dame,0220097L,Guingamp,Rennes,Côtes-d'Armor,Privé,115.2,48.562440615195335,-3.1426202883760856
Lycée général et technologique privé Saint Joseph - Bossuet,0220102S,Lannion,Rennes,Côtes-d'Armor,Privé,124.8,48.72874868839299,-3.4561094497874234
Pôle Supérieur Lycée Saint Brieuc,0220116G,Saint-Brieuc,Rennes,Côtes-d'Armor,Privé,106.7,48.51162179615361,-2.7751196794780686
Lycée international Jeanne d'Arc,0630019D,Clermont-Ferrand,Clermont-Ferrand,Puy-de-Dôme,Public,127.4,45.77743997678379,3.094910386297031
Lycée professionnel Germaine Tillion,0630078T,Thiers,Clermont-Ferrand,Puy-de-Dôme,Public,80.1,45.845588655164136,3.5267999787582704
Lycée agricole privé Pommerit Jaudy,0221593M,La Roche-Jaudy,Rennes,Côtes-d'Armor,Privé,,48.716298151462546,-3.261774239316856
Lycée agricole privé Dominique Savio de Dinan,0221680G,Dinan,Rennes,Côtes-d'Armor,Privé,,48.45130929832135,-2.047810318223569
Lycée professionnel privé Marie Balavenne,0221867K,Saint-Brieuc,Rennes,Côtes-d'Armor,Privé,103.3,48.51174666779111,-2.775630314693284
"Lycée d'enseignement général, technologique et professionnel agricole de Coulounieix - Périgueux",0240023V,Coulounieix-Chamiers,Bordeaux,Dordogne,Public,,45.17467358218703,0.6966626038536253
Lycée professionnel Pablo Picasso,0240028A,Périgueux,Bordeaux,Dordogne,Public,86.8,45.19160582856555,0.7260109472827517
Lycée technologique et professionnel privé de la CCI de la Dordogne,0240092V,Boulazac Isle Manoire,Bordeaux,Dordogne,Privé,107.1,45.18014900411938,0.7770035112608087
Lycée polyvalent Antoine de Saint-Exupéry,0241125T,Terrasson-Lavilledieu,Bordeaux,Dordogne,Public,102.7,45.13251269819211,1.2796635104300569
Ecole TERRADE,0241254H,Bergerac,Bordeaux,Dordogne,Privé,,44.842321377699484,0.46679083207196065
Lycée général privé Thérèse d'Avila,0592922F,Lille,Lille,Nord,Privé,138.5,50.63093614902927,3.047926776851748
Lycée Sainte Jeanne d'Arc,0592928M,Aulnoye-Aymeries,Lille,Nord,Privé,103,50.200639667682175,3.8312103567966593
Lycée général privé Saint Jean,0592940A,Douai,Lille,Nord,Privé,136.3,50.36960965395435,3.0860735539934394
Lycée professionnel Les Huisselets - Lycée des métiers de la sécurité et de la prévention,0250067M,Montbéliard,Besançon,Doubs,Public,83,47.51164513219719,6.796659514563415
Lycée professionnel privé Numérique des Métiers EPIL (Groupe OEC) - Lycée des métiers de la construction de l'environnement et des énergies,0593027V,Lille,Lille,Nord,Privé,115.2,50.62226289891288,3.0573901909225523
Lycée polyvalent privé Saint Luc,0593061G,Cambrai,Lille,Nord,Privé,112.6,50.16958301950934,3.229590484855038
Lycée polyvalent privé Deforest de Lewarde,0593071T,Douai,Lille,Nord,Privé,95.9,50.37157863937761,3.0818404420605003
Lycée polyvalent privé Fondation Depoorter - Lycée des Métiers de la Santé et du Social,0593078A,Hazebrouck,Lille,Nord,Privé,98.6,50.72008158936342,2.534279336289359
Institution Notre-Dame Saint-Jean-Lycée,0251028G,Besançon,Besançon,Doubs,Privé,126.4,47.25894161568235,6.020494640160017
Ecole secondaire professionnelle privée Cours hôtelier de Besançon,0251070C,Besançon,Besançon,Doubs,Privé,,47.23571677955295,6.027160574769569
Lycée professionnel Tristan Bernard - Lycée des métiers des services aux entreprises,0251079M,Besançon,Besançon,Doubs,Public,85.2,47.218021648057224,5.97944976106934
Lycée d'enseignement général et technologique agricole de Mamirolle,0251202W,Mamirolle,Besançon,Doubs,Public,,47.196835144711066,6.162439761623894
"Lycée d'enseignement général, technologique et professionnel agricole de Dannemarie - Besancon",0251263M,Dannemarie-sur-Crète,Besançon,Doubs,Public,,47.200786302542056,5.870700388528962
Lycée professionnel Toussaint Louverture,0251349F,Pontarlier,Besançon,Doubs,Public,87.3,46.91431466501378,6.343580372214206
Lycée agricole privé Saint-Joseph des Fontenelles,0251479X,Les Fontenelles,Besançon,Doubs,Privé,,47.196085025618714,6.74809974030072
Ecole privée de Coiffure Cordier,0251674J,Besançon,Besançon,Doubs,Privé,,47.24561480801822,6.028969646785257
LP Bernard Cordier,0251971G,Besançon,Besançon,Doubs,Privé,92.8,47.24561480801822,6.028969646785257
Ecole Technique La Fontaine Mandeure,0252042J,Mandeure,Besançon,Doubs,Privé,,47.451572204433226,6.804139162358962
Lycée Professionnel Paul Langevin,0593495D,Waziers,Lille,Nord,Public,79.2,50.387338697181924,3.1023402216368394
LEAP Sylva Campus de Montelimar,0261265J,Montélimar,Grenoble,Drôme,Privé,,44.568507177359095,4.729680443209651
Lycée professionnel Modeste Leroy - Lycée des métiers des sciences du numérique au service de l'industrie 4.0,0270051J,Evreux,Normandie,Eure,Public,93,49.02245683549988,1.1663200585397335
Lycée professionnel Georges Dumézil,0270052K,Vernon,Normandie,Eure,Public,87.9,49.08104245583446,1.4769000880438066
Etablissement régional d'enseignement adapté déficients intellectuels légers handicapés sociaux Colette Magny,0594380R,Lys-lez-Lannoy,Lille,Nord,Public,,50.679126764184005,3.216399761590848
Lycée général et technologique Louis Majorelle,0540066D,Toul,Nancy-Metz,Meurthe-et-Moselle,Public,111.1,48.67834873331244,5.892889711653075
Lycée professionnel Paul Louis Cyfflé - Lycée des métiers des industries graphiques et des services aux organisations,0540082W,Nancy,Nancy-Metz,Meurthe-et-Moselle,Public,85.7,48.6866193082948,6.182420556311621
Lycée professionnel Bertrand Schwartz - Lycée des métiers de la logistique et des services,0540085Z,Pompey,Nancy-Metz,Meurthe-et-Moselle,Public,78.4,48.767168086552196,6.120590627975306
Lycée général et technologique privé Saint Adjutor,0271053Y,Vernon,Normandie,Eure,Privé,138.3,49.0859443237017,1.4575603617712103
Lycée agricole privé Tourville de Pont-Audemer,0271382F,Pont-Audemer,Normandie,Eure,Privé,,49.35114437278054,0.5140478444317781
Lycée général privé Saint Léon IX,0541313J,Nancy,Nancy-Metz,Meurthe-et-Moselle,Privé,145.3,48.688241184271014,6.172569806656088
Lycée général et technologique privé Jean-Baptiste Vatelot,0541320S,Toul,Nancy-Metz,Meurthe-et-Moselle,Privé,113.6,48.6731325999451,5.892009868491497
"Lycée professionnel privé Saint Michel - Lycée des métiers du transport, de l'automobile et de la domotique",0541344T,Art-sur-Meurthe,Nancy-Metz,Meurthe-et-Moselle,Privé,103.6,48.6635354093899,6.244770471234688
Lycée professionnel privé Jean-Baptiste Vatelot,0541377D,Toul,Nancy-Metz,Meurthe-et-Moselle,Privé,98.4,48.67307158154666,5.8921505480814105
Micro-lycée du lycée général et technologique Aristide Briand d'Evreux,0271870L,Evreux,Normandie,Eure,Public,,49.01670093304808,1.1562496091952008
Campus lycéen international normand Louis de Broglie,0271911F,Bourg-Achard,Normandie,Eure,Public,,49.34589215600896,0.8210737278402457
Lycée général et technologique Emile Zola,0280015P,Châteaudun,Orléans-Tours,Eure-et-Loir,Public,106.3,48.07252835589883,1.3341805137778273
Lycée général et technologique Rotrou,0280019U,Dreux,Orléans-Tours,Eure-et-Loir,Public,103.4,48.733982871877586,1.3608694234974978
Lycée polyvalent Rémi Belleau - Lycée des métiers du commerce et de la gestion des entreprises,0280036M,Nogent-le-Rotrou,Orléans-Tours,Eure-et-Loir,Public,104.9,48.31748816498901,0.8110202482606521
Ecole technique privée Michel Platini,0541973B,Bois-de-Haye,Nancy-Metz,Meurthe-et-Moselle,Privé,,48.699933310020974,6.027169618987846
"Lycée polyvalent Jacques-Marie Boutet de Monvel - Lycée des métiers d'art, de l'ingénierie, des sciences de l'industrie et du bâtiment",0542293Z,Lunéville,Nancy-Metz,Meurthe-et-Moselle,Public,98.2,48.59960369448274,6.493380454066104
Lycée professionnel privé de Couasnon - Lycée des métiers des services à la personne et à l'entreprise,0280687V,Dreux,Orléans-Tours,Eure-et-Loir,Privé,94,48.73308175305187,1.3864403010876953
Lycée général et technologique Raymond Poincaré,0550002D,Bar-le-Duc,Nancy-Metz,Meuse,Public,105.4,48.77741675792715,5.157180236904018
Lycée général et technologique privé Saint Louis,0550047C,Bar-le-Duc,Nancy-Metz,Meuse,Privé,128.6,48.77183812312568,5.161380254116962
Lycée agricole privé  Franz Stock de Mignières,0280967Z,Mignières,Orléans-Tours,Eure-et-Loir,Privé,,48.35971498599011,1.42978980263151
Lycée général La Pérouse-Kerichen,0290007A,Brest,Rennes,Finistère,Public,127.4,48.40641186348107,-4.479274903861167
Lycée Naval,0290063L,Brest,Rennes,Finistère,Public,,48.39042762250076,-4.4860602260253994
Lycée professionnel Jules Lesven,0290102D,Brest,Rennes,Finistère,Public,89.5,48.40641186348107,-4.479274903861167
Lycée polyvalent Dupuy de Lôme,0290108K,Brest,Rennes,Finistère,Public,92.3,48.39104892833685,-4.51077046388147
Lycée général et technologique privé Saint Louis,0290156M,Châteaulin,Rennes,Finistère,Privé,111.2,48.197284832296035,-4.085149410727333
Lycée général et technologique privé Saint Sébastien,0290159R,Landerneau,Rennes,Finistère,Privé,124.6,48.45169323544028,-4.257799739722499
Lycée général et technologique privé Saint-Gabriel,0290168A,Pont-l'Abbé,Rennes,Finistère,Privé,109.4,47.86354870314154,-4.218309554097775
Lycée général privé Notre-Dame de Kerbertrand,0290174G,Quimperlé,Rennes,Finistère,Privé,124.3,47.87174082782485,-3.5611641959309783
Lycée général et technologique privé Javouhey,0290181P,Brest,Rennes,Finistère,Privé,110.4,48.382873469547825,-4.502419691302942
Lycée professionnel Emile James - Lycée des métiers,0560008E,Etel,Rennes,Morbihan,Public,96.1,47.66357401085235,-3.204129450528433
Lycée agricole privé Agrotech de Lesneven,0290324V,Lesneven,Rennes,Finistère,Privé,,48.57624116928498,-4.3211856766184145
Etablissement régional d'enseignement adapté Louise Michel,0290347V,Quimper,Rennes,Finistère,Public,,47.99108211494013,-4.096810639741939
Lycée professionnel Julien Crozet - Lycée des métiers de l'écohabitat,0560042S,Port-Louis,Rennes,Morbihan,Public,97.7,47.706288149616555,-3.3569401315763265
Lycée général privé Saint François-Xavier,0560114V,Vannes,Rennes,Morbihan,Privé,135.8,47.654118572623666,-2.760760370613821
Lycée agricole privé Kerbernez de Plomelin,0291574D,Plomelin,Rennes,Finistère,Privé,,47.93326440450417,-4.141423318798411
Lycée polyvalent privé Saint Joseph,0291654R,Concarneau,Rennes,Finistère,Privé,121.1,47.87402664863521,-3.9218698104634426
Lycée général et technologique du Léon,0292047T,Landivisiau,Rennes,Finistère,Public,104.9,48.50463012548733,-4.08248944897845
Lycée général privé Diwan,0292137R,Carhaix-Plouguer,Rennes,Finistère,Privé,132.3,48.273316423023736,-3.5596793993488527
"Lycée polyvalent Ernest Hemingway, Lycée des métiers de la mode et design",0300027S,Nîmes,Montpellier,Gard,Public,103.1,43.824898970353765,4.353350058058883
"Lycée professionnel  Marie Curie, lycée des métiers de l'hôtellerie et de la restauration",0300041G,Saint-Jean-du-Gard,Montpellier,Gard,Public,93.5,44.11395031945159,3.8734584415184936
"Lycée professionnel Gaston Darboux, Lycée des métiers des services aux entreprises",0300057Z,Nîmes,Montpellier,Gard,Public,75.8,43.819444363043125,4.32827956241038
"Lycée professionnel Frédéric Mistral - Lycée des métiers de l'écoconstruction à énergie positive, dela signalétique et de l'aéronautique",0300058A,Nîmes,Montpellier,Gard,Public,82.4,43.82282901133885,4.3604302678859455
Lycée polyvalent Hippolyte Fontaine,0210018F,Dijon,Dijon,Côte-d'Or,Public,102.3,47.31764588552296,5.051077641890806
Lycée professionnel Eugène Guillaume - Lycée des métiers de l'industrie et de la transition énergétique,0210056X,Montbard,Dijon,Côte-d'Or,Public,94.3,47.62273402191986,4.339963125775535
Lycée professionnel Voltaire,0301210C,Nîmes,Montpellier,Gard,Public,83.7,43.82676675769019,4.3370600209288686
Lycée polyvalent privé d'Alzon Saint Felix,0301499S,Beaucaire,Montpellier,Gard,Privé,109.9,43.808372681865954,4.6432200768867045
Lycée polyvalent Saint Joseph - La salle,0211089V,Dijon,Dijon,Côte-d'Or,Privé,124.8,47.314140110651635,5.038090038203749
Lycée d'enseignement général et technologique agricole de la Barotte-Haute-Côte-d'Or,0211217J,Châtillon-sur-Seine,Dijon,Côte-d'Or,Public,,47.860101033281246,4.614529713816748
Lycée général et technologique Vincent Auriol,0310028M,Revel,Toulouse,Haute-Garonne,Public,119.3,43.45632273091601,2.011653138718951
Lycée général Pierre de Fermat,0310036W,Toulouse,Toulouse,Haute-Garonne,Public,141.8,43.6032751508944,1.4398952901892104
Lycée général et technologique Marcelin Berthelot,0310039Z,Toulouse,Toulouse,Haute-Garonne,Public,116.9,43.5873697239962,1.4431603652647103
Lycée polyvalent hôtelier - Lycée des métiers de l'hôtellerie et du tourisme d'Occitanie,0310046G,Toulouse,Toulouse,Haute-Garonne,Public,119,43.597950788104605,1.4048599589933615
Lycée professionnel Guynemer,0310051M,Toulouse,Toulouse,Haute-Garonne,Public,86.1,43.58739011438754,1.4520800642177174
Lycée professionnel Stéphane Hessel,0310091F,Toulouse,Toulouse,Haute-Garonne,Public,95.2,43.61595809445452,1.4773300011267958
Lycée général et technologique Jean-Marc Boivin,0211909L,Chevigny-Saint-Sauveur,Dijon,Côte-d'Or,Public,119.8,47.30296679609256,5.127530101189113
Lycée international Charles de Gaulle,0211928G,Dijon,Dijon,Côte-d'Or,Public,132.2,47.349172077861134,5.042366309595201
EISEC,0212188P,Fontaine-lès-Dijon,Dijon,Côte-d'Or,Privé,,47.3379452394656,5.036879814733555
Lycée général et technologique Auguste Pavie,0220018A,Guingamp,Rennes,Côtes-d'Armor,Public,109.1,48.55757698985355,-3.1474901478791177
Lycée général et technologique Ernest Renan,0220057T,Saint-Brieuc,Rennes,Côtes-d'Armor,Public,115.8,48.515896427694656,-2.752559945001081
Lycée professionnel hotelier La Closerie,0220064A,Saint-Quay-Portrieux,Rennes,Côtes-d'Armor,Public,98.2,48.65813193993058,-2.8469397339203906
Lycée général et technologique Joseph Savina,0220065B,Tréguier,Rennes,Côtes-d'Armor,Public,109.3,48.78588363686973,-3.2352898497827884
Lycée professionnel Joseph Savina,0220072J,Tréguier,Rennes,Côtes-d'Armor,Public,99.9,48.785769160975356,-3.23464947380538
Lycée  professionnel Jean Monnet - Lycée des métiers du bâtiment et de l'art de la pierre,0220075M,Quintin,Rennes,Côtes-d'Armor,Public,93.9,48.40628127564215,-2.9115201393699004
Lycée général et technologique privé St Joseph,0220099N,Lamballe-Armor,Rennes,Côtes-d'Armor,Privé,114.2,48.459236151936615,-2.5136297040421125
Lycée général privé Saint Charles,0220110A,Saint-Brieuc,Rennes,Côtes-d'Armor,Privé,135.5,48.50987497573396,-2.7686798334391867
Lycée général et technologique privé Saint Pierre,0220111B,Saint-Brieuc,Rennes,Côtes-d'Armor,Privé,124.8,48.513134622741994,-2.7661594613915526
Lycée d'enseignement général et technologique agricole de Guingamp-Kernilien,0220470S,Guingamp,Rennes,Côtes-d'Armor,Public,,48.578724423458986,-3.184750598903682
Ecole technologique privée ORT Maurice Grynfogel,0311189Z,Colomiers,Toulouse,Haute-Garonne,Privé,,43.60268310656211,1.332659827895207
Lycée professionnel privé Jasmin Coiffure,0311190A,Toulouse,Toulouse,Haute-Garonne,Privé,108.6,43.57738566710326,1.4780598598853874
Lycée professionnel privé AIRBUS - TOULOUSE - Lycée des métiers de l'aéronautique,0311200L,Toulouse,Toulouse,Haute-Garonne,Privé,110.9,43.609423066973775,1.355995573352923
Lycée agricole privé de Quessoy,0221033D,Quessoy,Rennes,Côtes-d'Armor,Privé,,48.42536715078022,-2.660995031763903
Lycée agricole privé de Montastruc,0311842J,Montastruc-la-Conseillère,Toulouse,Haute-Garonne,Privé,,43.72513976209671,1.583643399083922
Lycée agricole privé Xavier Grall de Loudeac,0221676C,Loudéac,Rennes,Côtes-d'Armor,Privé,,48.18061676576555,-2.7568823139217034
Lycée professionnel privé ORT Maurice Grynfogel,0312191N,Colomiers,Toulouse,Haute-Garonne,Privé,120.1,43.602298908446194,1.3329001012508115
Lycée général privé OHR Torah - Leder institit,0312356T,Toulouse,Toulouse,Haute-Garonne,Privé,126.8,43.622133414092765,1.4617305213802314
Cours secondaire privé la Clairière,0312527D,Toulouse,Toulouse,Haute-Garonne,Privé,,43.56493397820973,1.4066399187397962
"Lycée professionnel Delphine Gay - Lycée des métiers du bien-être, des soins à la personne et de la restauration.",0230008J,Bourganeuf,Limoges,Creuse,Public,88.5,45.95472012039392,1.75191024268043
Ecole de production privé Dynaméca,0312579K,Toulouse,Toulouse,Haute-Garonne,Privé,109.3,43.59843794548081,1.4152098674852227
Lycée polyvalent Charles de Gaulle - Lycée des métiers de l'énergétique et de la domotique,0312822Z,Muret,Toulouse,Haute-Garonne,Public,109.4,43.46886503933289,1.3216206013213703
Lycée polyvalent Léon Blum,0312915A,Villefranche-de-Lauragais,Toulouse,Haute-Garonne,Public,129.8,43.40046299809547,1.729379968810768
Lycée polyvalent Martin Malvy,0312995M,Cazères,Toulouse,Haute-Garonne,Public,115.7,43.20974725275653,1.0774525409085516
Lycée professionnel Arnaut Daniel,0240050Z,Ribérac,Bordeaux,Dordogne,Public,85.3,45.24321257676905,0.3343495484072228
Lycée général et technologique Pardailhan,0320002D,Auch,Toulouse,Gers,Public,118.6,43.65382826736935,0.5777504886624886
Lycée polyvalent Alain-Fournier,0320023B,Mirande,Toulouse,Gers,Public,107.2,43.51690944138923,0.40423046772014565
Lycée d'enseignement général et technologique agricole d'Auch - site de Pavie,0320530C,Pavie,Toulouse,Gers,Public,,43.614114007412894,0.5954700706036188
Lycée professionnel Charles Péguy - Lycée des métiers de l'industrie et de l'artisanat,0330076D,Eysines,Bordeaux,Gironde,Public,93.1,44.88887966291695,-0.6268739828767195
Lycée professionnel Paul Broca,0330114V,Sainte-Foy-la-Grande,Bordeaux,Gironde,Public,84.3,44.83816405291122,0.2151582453501424
Lycée professionnel Tregey Rive de Garonne,0330142A,Bordeaux,Bordeaux,Gironde,Public,79.9,44.839351035466805,-0.5479990528350409
Lycée professionnel Nelson Mandela - Lycée des métiers et de l'ouverture internationale,0250001R,Audincourt,Besançon,Doubs,Public,76.8,47.48440477835469,6.851839399677355
Lycée général et technologique Victor Hugo,0250007X,Besançon,Besançon,Doubs,Public,115.5,47.21911013160919,5.97719997321722
LPO Jules Haag,0250011B,Besançon,Besançon,Doubs,Public,109.8,47.23883565943557,6.012610423155057
Lycée général et technologique Georges Cuvier,0250030X,Montbéliard,Besançon,Doubs,Public,103.1,47.51495688763119,6.803899733041705
Etablissement régional d'enseignement adapté de la Plaine,0331739L,Eysines,Bordeaux,Gironde,Public,,44.875494448541524,-0.6647637746592696
Lycée agricole privé Lasalle de Levier,0251480Y,Levier,Besançon,Doubs,Privé,,46.955089278991686,6.124344955980788
LPO Edgar Faure - Lycée des métiers de la précision et du luxe,0251671F,Morteau,Besançon,Doubs,Public,99.3,47.06213624017925,6.6073702163599135
Lycée polyvalent Claude Nicolas Ledoux,0251711Z,Besançon,Besançon,Doubs,Public,116.3,47.25368532957058,5.999970193747298
Etablissement régional d'enseignement adapté Le Corbusier,0332198K,Pessac,Bordeaux,Gironde,Public,,44.786224618459826,-0.6500955110164566
Ecole de production de Besançon,0252000N,Besançon,Besançon,Doubs,Privé,,47.2647311721108,6.05072951943295
"Lycée professionnel privé Saint Genes La Salle - Lycée des métiers de la transition énergétique, du numérique, du transport logistique et du commerce",0332550T,Bordeaux,Bordeaux,Gironde,Privé,122.4,44.824904840364745,-0.5813938901927379
Lycée général Jean Monnet,0332745E,Blanquefort,Bordeaux,Gironde,Public,121.8,44.91634371056325,-0.6347964845646115
Cours secondaire privé Peret,0332759V,Le Haillan,Bordeaux,Gironde,Privé,,44.86055492242057,-0.6670919351736827
Lycée général et technologique Modeste Leroy,0270017X,Evreux,Normandie,Eure,Public,113.6,49.02202725372725,1.1659304214995325
Lycée général et technologique Georges Dumézil,0270044B,Vernon,Normandie,Eure,Public,110.9,49.08104245583446,1.4769000880438066
Lycée d'enseignement général et technologique agricole de Chambray,0271016H,Mesnils-sur-Iton,Normandie,Eure,Public,,48.83381683637059,1.016091776806282
Lycée général et technologique privé Saint Ouen,0271049U,Pont-Audemer,Normandie,Eure,Privé,123.3,49.35170916582673,0.49593005503866655
Lycée d'enseignement général et technologique agricole d'Evreux,0271107G,Evreux,Normandie,Eure,Public,,49.008387206426185,1.1492805964884016
L.E.M - Lycée Edgar Morin,0333368G,Bordeaux,Bordeaux,Gironde,Privé,136.6,44.84970567294946,-0.5613216119210588
Lycée polyvalent Irène et Frédéric Joliot-Curie,0340076Y,Sète,Montpellier,Hérault,Public,102.6,43.39624477968602,3.6667105243729026
Lycée général et technologique Léopold Sedar Senghor,0271579V,Evreux,Normandie,Eure,Public,111,49.01012346368505,1.1380794036432949
Village équestre de Conches,0271872N,Le Val-Doré,Normandie,Eure,Privé,,48.97710406055831,0.9703488833294682
Lycée général Marceau,0280007F,Chartres,Orléans-Tours,Eure-et-Loir,Public,127.6,48.44286359254291,1.4930801047543556
Lycée professionnel privé Françoise d'Aubigne,0280689X,Maintenon,Orléans-Tours,Eure-et-Loir,Privé,121.3,48.5876240536965,1.5759800015236693
Lycée agricole privé de Nermont - site de Nogent,0280947C,Nogent-le-Rotrou,Orléans-Tours,Eure-et-Loir,Privé,,48.31110610433881,0.8108901991688932
Lycée professionnel Sully - Lycée des métiers de l'industrie 4.0,0281021H,Nogent-le-Rotrou,Orléans-Tours,Eure-et-Loir,Public,93,48.325257665256316,0.8206400431214972
Ecole de coiffure esthétique Beauté Formation - Groupe Silvya Terrade,0281150Y,Chartres,Orléans-Tours,Eure-et-Loir,Privé,,48.45252247404552,1.4884501544105762
International Beauty and Cosmetic Business School by Régine Ferrère,0281177C,Chartres,Orléans-Tours,Eure-et-Loir,Privé,,48.442979371975795,1.4900839216385782
Lycée polyvalent Joséphine Baker,0281197Z,Hanches,Orléans-Tours,Eure-et-Loir,Public,118.2,48.601125680154425,1.6612872053262109
Lycée général et technologique Amiral Ronarc'h,0290008B,Brest,Rennes,Finistère,Public,125.3,48.39649715503967,-4.5246199180651345
Lycée général de L'Harteloire,0290010D,Brest,Rennes,Finistère,Public,120.9,48.394328623500655,-4.490460251231009
Lycée polyvalent Pierre Guéguin - Lycée des métiers des énergies et du nautisme,0290030A,Concarneau,Rennes,Finistère,Public,110.6,47.86288444717247,-3.900510338711747
Lycee general et technologique Jean-Marie Le Bris,0290034E,Douarnenez,Rennes,Finistère,Public,116.9,48.08427266896904,-4.325670087197783
Lycée polyvalent Yves Thépot,0290071V,Quimper,Rennes,Finistère,Public,100.3,47.988372660815195,-4.088107212724249
Lycée professionnel Jean Chaptal,0290072W,Quimper,Rennes,Finistère,Public,95.2,47.991718028504046,-4.119094383706457
Lycée général et technologique privé Notre-Dame du Mur,0290164W,Morlaix,Rennes,Finistère,Privé,121.5,48.57561771036415,-3.835180209546095
Lycée général privé Sainte Anne,0290338K,Brest,Rennes,Finistère,Privé,139.7,48.39639102572158,-4.490829553495157
Lycée professionnel privé Le Parterre,0340923U,Bédarieux,Montpellier,Hérault,Privé,103.5,43.61472570853572,3.1568899058134874
Lycée polyvalent privé Nevers,0340991T,Montpellier,Montpellier,Hérault,Privé,137.4,43.62112341638985,3.8696500906191793
Lycée professionnel agricole de Castelnau-le-Lez,0341001D,Castelnau-le-Lez,Montpellier,Hérault,Public,,43.63061713290374,3.8995595482808967
Lycée professionnel agricole de Pezenas,0341059S,Pézenas,Montpellier,Hérault,Public,,43.46221106912939,3.419309185894793
Lycée professionnel maritime du Guilvinec,0291107W,Treffiagat,Rennes,Finistère,Public,,47.79894981870888,-4.270080100786209
Lycée agricole privé le Roc Blanc de Ganges,0341473S,Ganges,Montpellier,Hérault,Privé,,43.93329584750131,3.70936021289047
Lycée polyvalent Jean Jaurès,0342066L,Saint-Clément-de-Rivière,Montpellier,Hérault,Public,127.1,43.710865475738224,3.833289619119724
Formation initiale CCI Brest / IFAC,0292346T,Guipavas,Rennes,Finistère,Privé,,48.420539622951004,-4.451109611035281
Sup-Veto Brest,0292373X,Brest,Rennes,Finistère,Privé,,48.393092302932416,-4.479670819221271
Lycée général et technologique Alphonse Daudet,0300021K,Nîmes,Montpellier,Gard,Public,120.1,43.83535568858276,4.357249473256298
Lycée général et technologique Albert Camus,0300023M,Nîmes,Montpellier,Gard,Public,106.4,43.835490864132446,4.345540040607138
Establiment Privat Leon Cordas (Lycée général privé),0342410K,Montpellier,Montpellier,Hérault,Privé,NS,43.64584761877983,3.8406743536645167
"Lycée polyvalent privé Saint Vincent de Paul, lycée des métiers des services",0300127A,Nîmes,Montpellier,Gard,Privé,111,43.834109902792484,4.3625302479765935
Lycée polyvalent Simone Veil,0342436N,Gignac,Montpellier,Hérault,Public,116.1,43.64733794005231,3.5416603601035557
Lycée polyvalent Yvon-Bourges - Lycée des métiers de l'hôtellerie et de la restauration,0350005R,Dinard,Rennes,Ille-et-Vilaine,Public,116.8,48.62524085335008,-2.0584398437003864
Lycée général Emile Zola,0350024L,Rennes,Rennes,Ille-et-Vilaine,Public,136.1,48.10878622779762,-1.6751533216808507
Lycée général et technologique Bréquigny,0350028R,Rennes,Rennes,Ille-et-Vilaine,Public,113.3,48.08457249925098,-1.688419551002567
"Lycée professionnel Bel Air - Lycée des métiers de la logistique, du transport et de la maintenance des véhicules",0350050P,Tinténiac,Rennes,Ille-et-Vilaine,Public,88.7,48.33202525818393,-1.8257206761231421
Lycée professionnel La Champagne - Lycée des métiers,0350709F,Vitré,Rennes,Ille-et-Vilaine,Public,86.3,48.121224034681745,-1.229872232199795
Lycée polyvalent privé Saint Vincent Providence,0350776D,Rennes,Rennes,Ille-et-Vilaine,Privé,143.1,48.11372195398317,-1.663820040947764
Lycée général et technologique privé Les Rimains,0350787R,Saint-Malo,Rennes,Ille-et-Vilaine,Privé,136.4,48.64724589620679,-2.004942270903336
"Lycée polyvalent privé Frédéric Ozanam - Lycée des métiers des services, de la construction et de l'industrie",0350793X,Cesson-Sévigné,Rennes,Ille-et-Vilaine,Privé,123.5,48.12999050182102,-1.598099543380704
Lycée général privé Jean Paul II,0350801F,Saint-Grégoire,Rennes,Ille-et-Vilaine,Privé,142.2,48.15986449029303,-1.6749995885276903
Lycée professionnel privé Notre Dame,0350807M,Saint-Méen-le-Grand,Rennes,Ille-et-Vilaine,Privé,110.3,48.19187198426406,-2.1800705361394948
"Lycée polyvalent Geneviève de Gaulle-Anthonioz, lycée des métiers de la santé et du social",0301654K,Milhaud,Montpellier,Gard,Public,95.4,43.785826943924405,4.309629792019576
Lycée agricole privé d'Alzon de Vestric,0301824V,Vestric-et-Candiac,Montpellier,Gard,Privé,,43.71765144260756,4.267460388305851
Ecole privée Team Etud' (Lycée général et technologique privé),0301844S,Anduze,Montpellier,Gard,Privé,,44.05971177604111,3.9717405835534096
HAPPY FOREVER SCHOOL (Ecole du second degré général privée),0301896Y,Bouillargues,Montpellier,Gard,Privé,,43.80913100671865,4.409708880361082
Lycée polyvalent Pierre d'Aragon,0310024H,Muret,Toulouse,Haute-Garonne,Public,111,43.454272292437864,1.3306893943397458
Lycée général et technologique de Bagatelle,0310032S,Saint-Gaudens,Toulouse,Haute-Garonne,Public,107.5,43.111751474319846,0.7456097887079884
Lycée professionnel Elisabeth et Norbert Casteret,0310033T,Saint-Gaudens,Toulouse,Haute-Garonne,Public,87.2,43.11266407333488,0.7252405646677484
Lycée professionnel Gabriel Péri - Lycée des métiers de la vente et de la mode,0310056T,Toulouse,Toulouse,Haute-Garonne,Public,97.3,43.60589539108379,1.4549196693636997
"Lycée professionnel -  Lycée des métiers d'art, du bois et de l'ameublement",0310088C,Revel,Toulouse,Haute-Garonne,Public,111.1,43.451353484686464,2.005557366316111
Lycée polyvalent privé Emilie de Rodat,0311134P,Toulouse,Toulouse,Haute-Garonne,Privé,144.6,43.595859912662654,1.4206068091565942
Lycée général et technologique privé Saint-Joseph-La Salle,0311145B,Toulouse,Toulouse,Haute-Garonne,Privé,147,43.5932877602121,1.4740523233705745
Lycée général et technologique privé Sainte-Marie des Champs,0311146C,Toulouse,Toulouse,Haute-Garonne,Privé,142.6,43.590758355912854,1.4697229849204894
Lycée général et technologique privé Sainte-Marie de Nevers,0311147D,Toulouse,Toulouse,Haute-Garonne,Privé,135.7,43.60727282133117,1.4434178459200382
Lycée professionnel agricole de Saint-Gaudens,0311268K,Saint-Gaudens,Toulouse,Haute-Garonne,Public,,43.11736896030717,0.7309499993179198
Lycée général et technologique René Descartes,0351907H,Rennes,Rennes,Ille-et-Vilaine,Public,115.7,48.08882209102094,-1.6426988372024027
Lycée agricole privé Jean-Baptiste le Taillandier - site de Fougères,0351947B,Fougères,Rennes,Ille-et-Vilaine,Privé,,48.36792760437641,-1.2027503417369243
Lycée agricole privé des Pays de Vilaine - Redon,0351958N,Redon,Rennes,Ille-et-Vilaine,Privé,,47.649816986022664,-2.0911059369856946
Lycée polyvalent privé Institution Saint-Malo - La Providence,0352072M,Saint-Malo,Rennes,Ille-et-Vilaine,Privé,126.4,48.65056459764527,-2.0257701785148496
Lycée général et technologique Stéphane Hessel,0311902Z,Toulouse,Toulouse,Haute-Garonne,Public,112.3,43.61613609499977,1.4758401040015245
Lycée professionnel privé Les Potiers,0311971Z,Toulouse,Toulouse,Haute-Garonne,Privé,118.4,43.5931421951866,1.4478351687628026
Lycée professionnel privé Castelnouvel,0312063Z,Léguevin,Toulouse,Haute-Garonne,Privé,104.9,43.59540562623645,1.2538190492911754
Lycée général privé Saint Joseph,0352341E,Bruz,Rennes,Ille-et-Vilaine,Privé,135.1,48.02503125665702,-1.7455206077313452
"Lycée professionnel privé Institut Myriam - Lycée des métiers de la mode, de la relation client et des services",0312064A,Toulouse,Toulouse,Haute-Garonne,Privé,104.6,43.597996922654225,1.4470500241899382
Lycée général et technologique des Arènes,0312267W,Toulouse,Toulouse,Haute-Garonne,Public,117.2,43.592246255804255,1.4186001279568254
Lycée général et technologique Pierre-Paul Riquet,0312289V,Saint-Orens-de-Gameville,Toulouse,Haute-Garonne,Public,134.4,43.53984199380689,1.5487112571127981
Lycée général et technologique Henri Matisse,0312290W,Cugnaux,Toulouse,Haute-Garonne,Public,119,43.529959210659754,1.3529648540107677
Lycée général et technologique Simone-Veil,0352950S,Liffré,Rennes,Ille-et-Vilaine,Public,127.6,48.20532178065305,-1.5023435017955429
ETP HC Cursus Parcours Santé RENNES,0352979Y,Rennes,Rennes,Ille-et-Vilaine,Privé,,48.113012980198896,-1.66228350053196
Lycée général HC Odorico Rennes,0353007D,Rennes,Rennes,Ille-et-Vilaine,Privé,,48.108287151154116,-1.7099159580978236
Lycée professionnel Chateauneuf,0360003H,Argenton-sur-Creuse,Orléans-Tours,Indre,Public,85.9,46.58230448796834,1.5157403328051067
Lycée Polyvalent Saint-Exupéry - Lycée des métiers de la productique et de la maintenance aéronautique,0312686B,Blagnac,Toulouse,Haute-Garonne,Public,118.2,43.65330243738439,1.3755795741196881
Lycée polyvalent Jean-Pierre Vernant,0312744P,Pins-Justaret,Toulouse,Haute-Garonne,Public,124.8,43.47764564182532,1.3884904014246073
Lycée général Clémence Royer,0312754A,Fonsorbes,Toulouse,Haute-Garonne,Public,128.1,43.5285541560439,1.2075304595952796
"Lycée polyvalent Joseph Galliéni - Lycée des métiers de l'automobile, du transport et de la logistique",0312759F,Toulouse,Toulouse,Haute-Garonne,Public,83.5,43.57340769104061,1.4261397489726
ECOLE TECHNIQUE ENVOL,0312926M,Toulouse,Toulouse,Haute-Garonne,Privé,,43.5944114076183,1.3992996382835003
Lycée privé Internationnal School of Toulouse,0312980W,Colomiers,Toulouse,Haute-Garonne,Privé,,43.61500301175265,1.3029085655838735
Lycée général privé hors contrat Frizbi,0313176J,Rouède,Toulouse,Haute-Garonne,Privé,,,
Lycée général et technologique Bossuet,0320009L,Condom,Toulouse,Gers,Public,107.5,43.96213494411511,0.37410017446458865
Lycée général et technologique privé Oratoire Sainte-Marie,0320051G,Auch,Toulouse,Gers,Privé,124.8,43.65050843514658,0.5778796261921129
Lycée général privé Saint-Joseph,0320054K,Lectoure,Toulouse,Gers,Privé,127,43.93073835907883,0.6268491937064323
Lycée privé Saint-Christophe,0320737C,Masseube,Toulouse,Gers,Privé,137.9,43.39806236694693,0.5830606033868354
Lycée général et technologique Jaufré Rudel,0330020T,Blaye,Bordeaux,Gironde,Public,101.5,45.12378511042626,-0.6606487305042764
Lycée général et technologique Camille Jullian,0330023W,Bordeaux,Bordeaux,Gironde,Public,135.8,44.84462341783412,-0.5902035283353789
Lycée général et technologique Nicolas Brémontier,0330029C,Bordeaux,Bordeaux,Gironde,Public,115.5,44.82398898745547,-0.570333266630794
Lycée général Reclus,0330115W,Sainte-Foy-la-Grande,Bordeaux,Gironde,Public,101.5,44.8381711340629,0.21522500162032407
Lycée général privé du Mirail,0331498Z,Bordeaux,Bordeaux,Gironde,Privé,127.5,44.83346960302127,-0.5709652466719848
Lycée général privé La Sauque,0331504F,La Brède,Bordeaux,Gironde,Privé,139.8,44.69139676539378,-0.5113533655992378
Lycée professionnel privé Saint Michel,0331548D,Blanquefort,Bordeaux,Gironde,Privé,106.7,44.91115546867992,-0.6372835716573921
Lycée général et technologique Jean Moulin,0331636Z,Langon,Bordeaux,Gironde,Public,116.8,44.54751300648586,-0.2561600379585702
Lycée professionnel agricole de la Tour Blanche - Bommes,0331740M,Bommes,Bordeaux,Gironde,Public,,44.542771382941595,-0.350655445031565
Ecole 2D degré général privée Pilcalli - Lycée Montessori International,0783864B,Buchelay,Versailles,Yvelines,Privé,,48.97936105376958,1.6741937332147032
Lycée professionnel Emile Combes,0331882S,Bègles,Bordeaux,Gironde,Public,90.4,44.80674022625727,-0.5475079033689308
Lycée professionnel Jean-François Cail - Lycée des métiers du commerce et de la vente,0790015M,Chef-Boutonne,Poitiers,Deux-Sèvres,Public,85,46.1049683014001,-0.07029012192367864
Lycée professionnel Les Grippeaux,0790090U,Parthenay,Poitiers,Deux-Sèvres,Public,88.7,46.6371197050855,-0.26023871065211945
Lycée professionnel Henri Brulle,0332344U,Libourne,Bordeaux,Gironde,Public,87.7,44.9141763081036,-0.2306541992435796
LPA Camille Godard du Haillan,0332380H,Le Haillan,Bordeaux,Gironde,Public,,44.870873647506116,-0.667266932540874
Lycée professionnel Jacques Brel - Lycée des métiers de l'industrie et de l'optique,0332441Z,Lormont,Bordeaux,Gironde,Public,88.2,44.87642946579636,-0.5146250466605605
Lycée général Nord Bassin - Simone Veil,0332724G,Andernos-les-Bains,Bordeaux,Gironde,Public,122.7,44.75365847586796,-1.0772732436213974
Lycée professionnel Gaston Barré - Lycée des métiers de l'automobile et de la logistique,0790928E,Niort,Poitiers,Deux-Sèvres,Public,87,46.314622458565786,-0.4390167178120123
Lycée agricole privé le Val de l'Ouin de Mauléon,0790977H,Mauléon,Poitiers,Deux-Sèvres,Privé,,46.92235261071029,-0.7527868331873653
Lycée professionnel Montaigne - Lycée des métiers des mobilités et des énergies nouvelles,0801194N,Amiens,Amiens,Somme,Public,79.4,49.91055117159291,2.319605807184914
"Lycée professionnel Jean-Charles Athanase Peltier - Lycée des métiers des services, de la santé et du social",0801252B,Ham,Amiens,Somme,Public,72.8,49.75107198194297,3.0781184417529786
Lycée professionnel agricole de Haute-Somme - Peronne,0801328J,Péronne,Amiens,Somme,Public,,49.93580734506121,2.9279767225899342
Lycée professionnel Romain Rolland - Lycée des métiers du tertiaire et de la sécurité,0801628K,Amiens,Amiens,Somme,Public,76.2,49.915490014695315,2.2974834055698716
Lycée général Ferdinand Fabre,0340005W,Bédarieux,Montpellier,Hérault,Public,109,43.61046344855572,3.154400362200886
Lycée général et technologique Henri IV,0340009A,Béziers,Montpellier,Hérault,Public,99.9,43.34343324346055,3.210700877404225
"Lycée professionnel Jean Mermoz, Lycée des métiers de la maintenance, de la menuiserie et de la relation client",0340012D,Béziers,Montpellier,Hérault,Public,79.1,43.34926175691658,3.233909558998924
"Lycée professionnel Pierre Mendès France, lycée des métiers des polytechniques",0340043M,Montpellier,Montpellier,Hérault,Public,83.1,43.59768164258932,3.9182602529050694
Lycée général Paul Valéry,0340075X,Sète,Montpellier,Hérault,Public,117.8,43.40141671829832,3.6919895366938213
Lycée général et technologique Robert de Luzarches,0801841S,Amiens,Amiens,Somme,Public,118.6,49.88550485369621,2.320220701335441
Lycée polyvalent La Hotoie,0801882L,Amiens,Amiens,Somme,Public,96.6,49.89593223330833,2.2764153332106707
Lycée général et technologique Victor Hugo,0810023K,Gaillac,Toulouse,Tarn,Public,118.4,43.90326461848923,1.9009023749204532
Lycée général privé Barral,0810071M,Castres,Toulouse,Tarn,Privé,129.1,43.59573432656668,2.23492578450883
Lycée général privé Saint-Joseph de L'Apparition,0810075S,Gaillac,Toulouse,Tarn,Privé,121.7,43.89915903496471,1.8987023563009209
Lycée professionnel agricole de Lavaur,0810578N,Lavaur,Toulouse,Tarn,Public,,43.68791875127125,1.8415647530567227
Lycée polyvalent Borde Basse,0810959C,Castres,Toulouse,Tarn,Public,107.7,43.62633593322299,2.261182314282154
Lycée professionnel privé Sainte-Cécile,0811070Y,Albi,Toulouse,Tarn,Privé,105.5,43.943760954738316,2.1480183737018033
Lycée agricole privé André Alquier de Saint-Amans Soult,0811105L,Saint-Amans-Soult,Toulouse,Tarn,Privé,,43.487982155886854,2.4651705799088903
Lycée général et technologique privé Rabelais,0341765J,Montpellier,Montpellier,Hérault,Privé,119.2,43.60248811087468,3.8833596183293224
Ecole supérieure privée Studio M,0341793P,Montpellier,Montpellier,Hérault,Privé,,43.63616229755564,3.8298266342074805
Lycée polyvalent Marc Bloch,0342091N,Sérignan,Montpellier,Hérault,Public,102.6,43.263181338005914,3.2845805466735265
"Lycée polyvalent Georges Frêche - Lycée des métiers de la gastronomie, de l'hôtellerie et du tourisme",0342225J,Montpellier,Montpellier,Hérault,Public,107,43.604933285307496,3.9120697147625525
French Touch Academy (Ecole second degré polyvalent privée),0342461R,Agde,Montpellier,Hérault,Privé,,43.29092586840582,3.5099119264836625
Ecole Active (Ecole du second degré général privée),0342463T,Béziers,Montpellier,Hérault,Privé,,43.348841458135205,3.216267827605931
"Lycée professionnel Louis Guilloux - Lycée des métiers de la boulangerie-pâtisserie, de l'hôtellerie-restauration, de la couture et confection",0350032V,Rennes,Rennes,Ille-et-Vilaine,Public,90.1,48.124921765860535,-1.6321844703130235
Lycée général et technologique Maupertuis,0350042F,Saint-Malo,Rennes,Ille-et-Vilaine,Public,106.9,48.640676165763864,-2.0048394052082212
Lycée professionnel Bréquigny,0350059Z,Rennes,Rennes,Ille-et-Vilaine,Public,86.8,48.084857877568766,-1.6911894287014835
Lycée professionnel Maupertuis,0350062C,Saint-Malo,Rennes,Ille-et-Vilaine,Public,89.1,48.64058401571357,-2.0058301731314963
Lycée professionnel Beaumont,0350102W,Redon,Rennes,Ille-et-Vilaine,Public,93.5,47.65534568595014,-2.0928504050246834
Lycée professionnel privé Saint-Lubin - Apprentis d'Auteuill,0820551D,Caussade,Toulouse,Tarn-et-Garonne,Privé,111.6,44.152133605477346,1.5300879580716866
Lycée d'enseignement général et technologique agricole de Rennes-le-Rheu,0350700W,Le Rheu,Rennes,Ille-et-Vilaine,Public,,48.09938946437969,-1.8092498270455981
Etablissement régional d'enseignement adapté Jean Bart,0350732F,Redon,Rennes,Ille-et-Vilaine,Public,,47.647757937184586,-2.086759410724303
Etablissement régional d'enseignement adapté Magda Hollander-Lafon,0350747X,Rennes,Rennes,Ille-et-Vilaine,Public,,48.0845741977023,-1.683010005933666
Lycée polyvalent privé Jean-Baptiste Le Taillandier - Lycée des métiers,0350769W,Fougères,Rennes,Ille-et-Vilaine,Privé,108.5,48.35701821014686,-1.204440051028482
Lycée général et technologique privé Saint Martin,0350777E,Rennes,Rennes,Ille-et-Vilaine,Privé,141,48.1166293748915,-1.6791295723203956
Lycée général privé Assomption,0350778F,Rennes,Rennes,Ille-et-Vilaine,Privé,138.8,48.122379250771374,-1.6589194034352441
Lycée polyvalent privé de La Salle - Lycée des métiers de la gestion et du commerce,0350795Z,Rennes,Rennes,Ille-et-Vilaine,Privé,118.5,48.125360297739775,-1.6686393691236225
Lycée professionnel privé de coiffure Skhole d'Art,0820885S,Montauban,Toulouse,Tarn-et-Garonne,Privé,109.7,44.01625221909191,1.3563350701540342
Lycée agricole privé les Vergers de Dol-de-Bretagne,0350918H,Dol-de-Bretagne,Rennes,Ille-et-Vilaine,Privé,,48.55221079453671,-1.7536397212408645
Lycée général et technologique Jean Moulin,0830015R,Draguignan,Nice,Var,Public,103.2,43.535586479966334,6.470640452044138
Lycée polyvalent privé Maintenon - Lycée des métiers de la relation client et de la gestion administrative,0830101J,Hyères,Nice,Var,Privé,126.4,43.12010544744189,6.13422397598725
Lycée professionnel privé Marie France,0830116A,Toulon,Nice,Var,Privé,108.8,43.123271468642685,5.9415225708320785
Lycée professionnel privé La Colette,0830128N,Toulon,Nice,Var,Privé,95.6,43.123402160702405,5.945271994625315
Lycée polyvalent Paul Langevin - Lycée des métiers de l'industrie et de la création,0830923C,La Seyne-sur-Mer,Nice,Var,Public,109.3,43.114713589608634,5.855518166664164
Lycée agricole privé Jean-Baptiste Le Taillandier- site de Saint-Aubin,0351960R,Saint-Aubin-du-Cormier,Rennes,Ille-et-Vilaine,Privé,,48.25684029515661,-1.396230560333089
"Lycée professionnel privé Externat Saint Joseph La Cordeille - Lycée des métiers du service à la personne, de la maintenance et du numérique",0831187P,Ollioules,Nice,Var,Privé,108.3,43.13915680772493,5.880876443365616
Lycée polyvalent du Golfe de Saint Tropez,0831242Z,Gassin,Nice,Var,Public,101.5,43.250351967932296,6.573191966888543
Ecole secondaire privée Sainte Marie,0352236R,Saint-Père-Marc-en-Poulet,Rennes,Ille-et-Vilaine,Privé,,48.58742561153917,-1.9180276532712963
Ecole générale et tecnologique privée - Cours privé Mirabeau,0831317F,Toulon,Nice,Var,Privé,,43.12710467253009,5.930396449913938
Lycée général et technologique Jean Brito,0352318E,Bain-de-Bretagne,Rennes,Ille-et-Vilaine,Public,117.1,47.8489201220049,-1.6934695158732713
Lycée général privé Stanislas,0831551K,Saint-Raphaël,Nice,Var,Privé,134.8,43.43554636633461,6.802654795601766
IMIE RENNES,0352881S,Bruz,Rennes,Ille-et-Vilaine,Privé,,48.049561206526114,-1.742779416876472
Académie d'art dentaire Isabelle Dutel - Rennes,0353126H,Saint-Grégoire,Rennes,Ille-et-Vilaine,Privé,,48.154053390362,-1.6728574963411744
Lycée général et technologique Pierre et Marie Curie,0360009P,Châteauroux,Orléans-Tours,Indre,Public,105.2,46.80937333731173,1.708559772645222
Ecole 2nd degré prof. privée Institut des métiers de la mer - IMME,0831838X,Puget-sur-Argens,Nice,Var,Privé,,43.45411921452479,6.698953050840305
Lycée général et technologique Théodore Aubanel,0840004Y,Avignon,Aix-Marseille,Vaucluse,Public,93.5,43.95192931326122,4.812281277118249
Ecole hôtelière privée,0840083J,Avignon,Aix-Marseille,Vaucluse,Privé,,43.927566177048064,4.845788415898883
Lycée d'enseignement général et technologique agricole d'Avignon,0840110N,Avignon,Aix-Marseille,Vaucluse,Public,,43.91028510026969,4.883433991006878
Lycée professionnel agricole d'Orange,0840218F,Orange,Aix-Marseille,Vaucluse,Public,,44.10264609448201,4.80327101675756
Lycée d'enseignement général et technologique agricole de Carpentras,0840607D,Carpentras,Aix-Marseille,Vaucluse,Public,,44.083475925744146,5.0638948203435525
Lycée agricole privé de Vaison la Romaine,0840746E,Vaison-la-Romaine,Aix-Marseille,Vaucluse,Privé,,44.24024947676323,5.071322253023891
Lycée professionnel Montesquieu - Lycée des métiers de l'industrie et du métal,0260116K,Valence,Grenoble,Drôme,Public,83.6,44.938430191948136,4.926869532332602
APEX2100 INTERNATIONAL SKI ACADEMY,0731581X,Tignes,Grenoble,Savoie,Privé,,45.468600175348875,6.909876595964623
Lycée général L Berthollet,0740003B,Annecy,Grenoble,Haute-Savoie,Public,135.8,45.905923030227484,6.127643950443313
Lycée professionnel G. Sommeiller,0740054G,Annecy,Grenoble,Haute-Savoie,Public,90.4,45.90672030384347,6.129380333932387
Lycée professionnel du Chablais,0740059M,Thonon-les-Bains,Grenoble,Haute-Savoie,Public,89.4,46.36086288018098,6.463969558759738
Lycée professionnel A.Gordini,0740062R,Annecy,Grenoble,Haute-Savoie,Public,90.9,45.88458466992953,6.109740360601451
Lycée général et technologique privé saint michel,0740082M,Annecy,Grenoble,Haute-Savoie,Privé,140.5,45.89179441324233,6.123654370013513
Ecole du second degré général privée Maurice Tièche,0740086S,Collonges-sous-Salève,Grenoble,Haute-Savoie,Privé,,46.13572830161895,6.157829786369761
Lycée Polyvalent privé Les Bressis,0741101V,Annecy,Grenoble,Haute-Savoie,Privé,106.1,45.893403809750396,6.100881116690109
Ecole professionnelle privée hors contrat IPSO CAMPUS,0741410F,Annecy,Grenoble,Haute-Savoie,Privé,,45.89158766354154,6.087129992795593
Lycée général et technologique Charles Baudelaire,0741418P,Annecy,Grenoble,Haute-Savoie,Public,115.2,45.896150240767284,6.095865249684925
Lycée général privé Sainte Croix des Neiges,0741443S,Abondance,Grenoble,Haute-Savoie,Privé,133.3,46.27783679931182,6.721209675763305
Ecole de production Saint Eloi - Annecy,0741802G,Faverges-Seythenex,Grenoble,Haute-Savoie,Privé,,45.752723325518005,6.285610530953843
Ecole de production ECOPRA - RUMILLY,0741819A,Rumilly,Grenoble,Haute-Savoie,Privé,,45.832703290595695,5.964888920838257
Lycée général et technologique Savary de Mauléon,0850032Y,Les Sables-d'Olonne,Nantes,Vendée,Public,115.4,46.50544816259638,-1.7774698092823549
Lycée polyvalent privé Sainte Ursule,0850077X,Luçon,Nantes,Vendée,Privé,111.3,46.45820273691367,-1.1658004488434195
Lycée polyvalent privé Notre-Dame du Roc,0850130E,La Roche-sur-Yon,Nantes,Vendée,Privé,115.9,46.68408647820199,-1.4217450811868695
Lycée polyvalent privé Sainte Marie du Port,0850133H,Les Sables-d'Olonne,Nantes,Vendée,Privé,119.2,46.51246861840468,-1.7655838845597103
"Lycée d'enseignement général, technologique et professionnel agricole de la Roche-sur-Yon",0850144V,La Roche-sur-Yon,Nantes,Vendée,Public,,46.665200382816714,-1.378769598280715
Lycée polyvalent Alcide Dusolier,0240021T,Nontron,Bordeaux,Dordogne,Public,100.5,45.53335504362223,0.665642994419968
Lycée général et technologique Joséphine Baker,0240035H,Sarlat-la-Canéda,Bordeaux,Dordogne,Public,112.6,44.86932703859892,1.2057890055702325
Lycée général et technologique privé Sainte Famille - Saintonge - Lycée des métiers de l'industrie et du bâtiment,0331556M,Bordeaux,Bordeaux,Gironde,Privé,125.2,44.83214235441901,-0.5800684109149119
Lycée agricole privé les Etablieres de la Roche-sur-Yon,0850609A,La Roche-sur-Yon,Nantes,Vendée,Privé,,46.697394254895606,-1.4294446894128408
Lycée polyvalent Robert Badinter,0333583R,Créon,Bordeaux,Gironde,Public,125.5,44.767211833634036,-0.3633625380118293
Lycée polyvalent Ernest Couteaux,0590192N,Saint-Amand-les-Eaux,Lille,Nord,Public,102.3,50.448499212313365,3.443630167896997
Lycée professionnel Louis Armand,0592712C,Jeumont,Lille,Nord,Public,68.5,50.29437266338567,4.1143193475766475
Lycée général Jules Supervielle,0640047D,Oloron-Sainte-Marie,Bordeaux,Pyrénées-Atlantiques,Public,115.6,43.18535804387742,-0.6230379980284149
Lycée polyvalent Marcel Gimond,0070003R,Aubenas,Grenoble,Ardèche,Public,107.3,44.61969939913845,4.383130418390217
Lycée polyvalent Astier,0070004S,Aubenas,Grenoble,Ardèche,Public,100.2,44.62549000882487,4.389079764646354
Lycée professionnel Léon Pavin,0070009X,Chomérac,Grenoble,Ardèche,Public,94.6,44.70159145312534,4.665173438079894
Lycée professionnel hôtelier - Lycée des métiers de l'hôtellerie et de la restauration innovante,0070016E,Largentière,Grenoble,Ardèche,Public,92.4,44.54598397268655,4.290633450223928
Lycée polyvalent privé Jules Froment,0070064G,Aubenas,Grenoble,Ardèche,Privé,109,44.61628422087675,4.3882996031694
Lycée professionnel privé Marc Seguin,0070100W,Annonay,Grenoble,Ardèche,Privé,99.2,45.24550840308892,4.675590235679155
Lycée général et technologique privé Saint Denis,0071126L,Annonay,Grenoble,Ardèche,Privé,116.4,45.2424974684928,4.678119598542129
Ecole de production C. de Foucauld,0071464D,Lamastre,Grenoble,Ardèche,Privé,,44.9865349125869,4.5859119136299995
lycée professionnel Notre Dame de La Providence,0190062P,Ussel,Limoges,Corrèze,Privé,93.4,45.54917431732376,2.3076895688115284
Lycée polyvalent François Jean Armorin,0260006R,Crest,Grenoble,Drôme,Public,115.2,44.7315858891416,5.01465765405813
Lycée général du Diois,0260008T,Die,Grenoble,Drôme,Public,126.5,44.75677988240906,5.366639067119506
Lycée général Albert Triboulet,0260022H,Romans-sur-Isère,Grenoble,Drôme,Public,115.4,45.04517722144815,5.058420585863855
Lycée polyvalent du Dauphiné - Lycée des métiers du cuir,0260023J,Romans-sur-Isère,Grenoble,Drôme,Public,105.3,45.05003306959538,5.040003853018236
Lycée général Emile Loubet,0260034W,Valence,Grenoble,Drôme,Public,116.3,44.9277321931781,4.8873199574135056
Etablissement régional d'enseignement adapté,0261034H,Montélimar,Grenoble,Drôme,Public,,44.539514039072884,4.742130192770158
Lycée polyvalent Algoud-Laffemas - Lycée des métiers du numérique,0261505V,Valence,Grenoble,Drôme,Public,106.7,44.918186245177196,4.916908181249479
Lycée général et technologique L'Oiselet,0380008C,Bourgoin-Jallieu,Grenoble,Isère,Public,113.5,45.59087367047759,5.269709493215446
Lycée professionnel Gambetta,0380010E,Bourgoin-Jallieu,Grenoble,Isère,Public,93.4,45.58832464101309,5.274549961353579
Lycée général Champollion,0380027Y,Grenoble,Grenoble,Isère,Public,144,45.18777900808305,5.725080166422062
Lycée polyvalent Vaucanson,0380033E,Grenoble,Grenoble,Isère,Public,112.8,45.17098601541509,5.708619688817393
"Lycée professionnel privé Le Breda - Lycée des métiers du commerce, du social et des services à la personne",0381741L,Allevard,Grenoble,Isère,Privé,101.9,45.392863919481464,6.071460404902944
Lycée professionnel privé Les portes de Chartreuse,0381805F,Voreppe,Grenoble,Isère,Privé,114.9,45.294753615440456,5.633567473124616
Lycée professionnel privé les prairies,0382169B,Nivolas-Vermelle,Grenoble,Isère,Privé,82.6,45.56465144484297,5.306408439026458
Ecole technique privée SILVYA TERRADE GRENOBLE,0383053M,Grenoble,Grenoble,Isère,Privé,,45.190292407189546,5.719549577580254
Lycée polyvalent Privé Saint Marc,0383072H,Nivolas-Vermelle,Grenoble,Isère,Privé,136.9,45.56465144484297,5.306408439026458
Lycée polyvalent privé Philippine Duchesne,0383208F,Corenc,Grenoble,Isère,Privé,136.9,45.19856559870427,5.751622260035766
Ecole du seond degré privée hors contrat ESTHETIQUE DE VIENNE,0383472T,Vienne,Grenoble,Isère,Privé,,45.520079618040604,4.869079709419464
ATELIER DES POSSIBLES,0383525A,Coublevie,Grenoble,Isère,Privé,,45.35091059419823,5.604169908143401
Ecole secondaire professionnelle privée de Saint-Egrève,0383618B,Saint-Egrève,Grenoble,Isère,Privé,,45.230624304765406,5.680310822675624
Lycée professionnel Sonia Delaunay,0590111A,Lille,Lille,Nord,Public,78.4,50.6490983316144,2.9965333782839103
"Lycée polyvalent Valéry Giscard d'Estaing - Lycée des métiers de l'hôtellerie, de la restauration et du tourisme",0631669X,Chamalières,Clermont-Ferrand,Puy-de-Dôme,Public,117.5,45.776718414488506,3.0506505466708926
Lycée général et technologique Gabriel Voisin,0710071S,Tournus,Dijon,Saône-et-Loire,Public,119.3,46.57425204976764,4.906754322738555
Lycée polyvalent Marlioz,0730003G,Aix-les-Bains,Grenoble,Savoie,Public,117.7,45.66641375975947,5.912070279033946
Lycée général et technologique Vaugelas,0730013T,Chambéry,Grenoble,Savoie,Public,130.5,45.56739472202638,5.918630517699966
Lycée polyvalent Monge - Lycée des métiers de la création industrielle,0730016W,Chambéry,Grenoble,Savoie,Public,115.5,45.565131384225744,5.933329646866618
Lycée polyvalent Ambroise Croizat - Lycée des métiers des services de la montagne,0730029K,Moûtiers,Grenoble,Savoie,Public,111.5,45.48185638120941,6.528740441001693
Lycée Polyvalent Paul Héroult,0730037U,Saint-Jean-de-Maurienne,Grenoble,Savoie,Public,105.4,45.27255793027357,6.350259448570398
Lycée polyvalent René Perrin - Lycée des métiers des sciences et des techniques de l'industrie,0730043A,Ugine,Grenoble,Savoie,Public,108.2,45.750737987234054,6.416430297735988
Lycée polyvalent privé Jeanne d'Arc,0730760E,Albertville,Grenoble,Savoie,Privé,109,45.67786915806447,6.390970389743636
Lycée professionnel privé Sainte Anne - Savoisienne,0730774V,La Motte-Servolex,Grenoble,Savoie,Privé,108,45.5983987799678,5.877370588996505
Lycée général et technologique Jean de Lattre de Tassigny,0851401L,La Roche-sur-Yon,Nantes,Vendée,Public,114.4,46.6749319402564,-1.4056833164244755
Lycée Professionnel privé St Gabriel St Michel,0851504Y,Saint-Laurent-sur-Sèvre,Nantes,Vendée,Privé,114.9,46.95931615742295,-0.8910764823946445
Lycée général et technologique François Villon,0780422K,Les Mureaux,Versailles,Yvelines,Public,101.8,48.97699910971362,1.922362889113734
Ecole Dentaire du Grand Ouest,0851661U,Les Herbiers,Nantes,Vendée,Privé,,46.88144287573081,-1.0112173436404879
Lycée général et technologique Cité technique Edouard Branly,0860005N,Châtellerault,Poitiers,Vienne,Public,105.7,46.80204197969595,0.5433950448936284
Lycée général et technologique André Theuriet,0860009T,Civray,Poitiers,Vienne,Public,108.8,46.149004447432304,0.29387533501092294
Lycée professionnel privé Saint Jean,0870919B,Limoges,Limoges,Haute-Vienne,Privé,111.7,45.82645164434255,1.2747192754459185
Lycée professionnel Paul Belmondo,0910628N,Arpajon,Versailles,Essonne,Public,93.3,48.59662184082922,2.246205681470227
Lycée général privé Notre Dame des Missions,0941877E,Charenton-le-Pont,Créteil,Val-de-Marne,Privé,149.4,48.8224352752584,2.40461439487343
Antenne de lycée professionnel de La Foa,9830509L,La foa,Nouvelle Calédonie,Nouvelle Calédonie,Public,,,
Lycée professionnel Alexandre Bérard - Lycée des métiers de la Plaine de l'Ain et du Bugey,0010001W,Ambérieu-en-Bugey,Lyon,Ain,Public,91.6,45.97496540033305,5.350240210822939
Lycée polyvalent Joseph-Marie Carriat,0010016M,Bourg-en-Bresse,Lyon,Ain,Public,106.6,46.19781467444025,5.224190392039921
Lycée professionnel Georges Charpak - Lycée des métiers de la maintenance des matériels,0010020S,Châtillon-sur-Chalaronne,Lyon,Ain,Public,98.2,46.12551422242611,4.95989039950852
Lycée polyvalent Xavier Bichat,0010032E,Nantua,Lyon,Ain,Public,106.3,46.155415935346554,5.602849356998366
Lycée polyvalent international,0010072Y,Ferney-Voltaire,Lyon,Ain,Public,122.3,46.26417531426239,6.116569685513785
Lycée général et technologique privé Saint Joseph,0010075B,Miribel,Lyon,Ain,Privé,134.1,45.82501963030465,4.950830610483265
Lycée d'enseignement général et technologique agricole de Poitiers-Venours,0860718N,Rouillé,Poitiers,Vienne,Public,,46.40170782204276,0.0704293696619643
Lycée professionnel privé Saint Gabriel Notre Dame,0860752A,Châtellerault,Poitiers,Vienne,Privé,99.1,46.81549811158278,0.5421538899148961
Lycée polyvalent privé St Jacques de Compostelle - Lycée des métiers au service des organisations et des personnes,0860774Z,Poitiers,Poitiers,Vienne,Privé,112.3,46.58549232522444,0.3819105941926395
Lycée polyvalent privé Isaac de l'étoile,0860789R,Poitiers,Poitiers,Vienne,Privé,104.1,46.60202666511234,0.3395939407153604
"Lycée d'enseignement général, technologique et professionnel agricole de Bourg en Bresse",0010819K,Bourg-en-Bresse,Lyon,Ain,Public,,46.21323048752465,5.256939531818341
Lycée polyvalent privé Jeanne d'Arc,0010878Z,Cessy,Lyon,Ain,Privé,129.1,46.32796483918519,6.062749949818525
Etablissement régional d'enseignement adapté Philibert Commerson,0010966V,Bourg-en-Bresse,Lyon,Ain,Public,,46.203701430627646,5.2729403325000455
Lycée général et technologique de la Plaine de l'Ain,0011194T,Ambérieu-en-Bugey,Lyon,Ain,Public,115,45.96194024689052,5.346378473005927
Lycée général et technologique du Val de Saône,0011276G,Trévoux,Lyon,Ain,Public,127.6,45.944917615461,4.763179541434364
Lycée général et technologique privé Saint Joseph,0011457D,Oyonnax,Lyon,Ain,Privé,107.8,46.25937964653585,5.656090597011637
Lycée général et technologique Gérard de Nerval,0020059D,Soissons,Amiens,Aisne,Public,99.6,49.386364080603975,3.323269462222443
Lycée d'enseignement général et technologique agricole de Crezancy,0020060E,Crézancy,Amiens,Aisne,Public,,49.049018238103265,3.5097298826778327
Lycée professionnel Julie Daubie,0020078Z,Laon,Amiens,Aisne,Public,76.5,49.56093889711918,3.6114105245166828
Lycée professionnel agricole de Thuré,0860818X,Thuré,Poitiers,Vienne,Public,,46.83198542670664,0.45962954080053353
"Lycée professionnel privé Saint-Vincent-de-Paul - Lycée des métiers du design, de la santé et de l'hôtellerie",0020492Z,Soissons,Amiens,Aisne,Privé,100.7,49.376155025752354,3.3360397497691343
Ecole Matile,0861398C,Jaunay-Marigny,Poitiers,Vienne,Privé,,46.67945360582696,0.36105940191094815
Lycée général et technologique Jean Baptiste Darnet,0870050G,Saint-Yrieix-la-Perche,Limoges,Haute-Vienne,Public,110.1,45.50391163139063,1.2016161580171092
Lycée polyvalent Turgot,0870056N,Limoges,Limoges,Haute-Vienne,Public,117.9,45.82884122057563,1.2492022844610813
Etablissement régional d'enseignement adapté,0021478W,Saint-Quentin,Amiens,Aisne,Public,,49.83324984075851,3.314649560087541
Lycée professionnel agricole de Saint-Yrieix-la-Perche,0870671G,Saint-Yrieix-la-Perche,Limoges,Haute-Vienne,Public,,45.51224362378867,1.2492380651748
Lycée général et technologique privé La Providence,0021872Z,Laon,Amiens,Aisne,Privé,116.3,49.56335859409278,3.6223006750168443
Lycée général et technologique Jean Lurçat,0880004B,Bruyères,Nancy-Metz,Vosges,Public,103.9,48.2048343818357,6.714617114790756
Lycée général La Haie Griselle,0880030E,Gérardmer,Nancy-Metz,Vosges,Public,121.7,48.07747000955214,6.873102674882346
Lycée professionnel privé Saint Joseph - Lycée des métiers de l'hôtellerie et de la restauration,0021999M,Château-Thierry,Amiens,Aisne,Privé,115.2,49.04247028855491,3.4008799497940694
Lycée polyvalent Pierre et Marie Curie - Lycée des métiers des arts de l'habitat et de l'ameublement,0880040R,Neufchâteau,Nancy-Metz,Vosges,Public,99.2,48.35894019196227,5.697076792572492
Lycée professionnel privé Saint Joseph,0022002R,Fontaine-lès-Vervins,Amiens,Aisne,Privé,86.4,49.836413482368656,3.9060001565254807
Lycée professionnel Jean Macé - Lycée des métiers du développement durable,0022008X,Chauny,Amiens,Aisne,Public,79.7,49.614417436034934,3.2209993583191534
Lycée professionnel Emile Gallé - Lycée des métiers de la mode et des services à la personne,0880064S,Thaon-les-Vosges,Nancy-Metz,Vosges,Public,86.2,48.248221459440146,6.410375379866099
Lycée polyvalent Georges Baumont - Lycée des métiers de l'ingénierie et des créations industrielles,0880152M,Saint-Dié-des-Vosges,Nancy-Metz,Vosges,Public,101.4,48.30018620300436,6.947194331196645
Ecole de production LA PROD'FACTORY à Epaux-Bézu,0022219B,Epaux-Bézu,Amiens,Aisne,Privé,,49.0818905921827,3.387928950512332
Lycée professionnel Camille Claudel,0881140L,Remiremont,Nancy-Metz,Vosges,Public,84.9,48.01503029935679,6.585722607358607
Lycée général privé Saint-Joseph,0030445T,Montluçon,Clermont-Ferrand,Allier,Privé,119.9,46.34121000750971,2.6080793430374443
Lycée professionnel privé Notre Dame - Saint Joseph,0881530K,Epinal,Nancy-Metz,Vosges,Privé,100.3,48.169410885712075,6.452315390600427
Lycée professionnel privé Horticulture et Paysage,0881623L,Roville-aux-Chênes,Nancy-Metz,Vosges,Privé,101.6,48.38613434742318,6.602758158122605
Lycée agricole privé la Providence de Harol,0881690J,Harol,Nancy-Metz,Vosges,Privé,,48.15301495129624,6.250529456683716
Lycée agricole privé du Mayet de Montagne,0030888Z,Le Mayet-de-Montagne,Clermont-Ferrand,Allier,Privé,,46.07511817701513,3.667023041240421
Lycée professionnel Gustave Eiffel - Lycée des métiers de la maintenance des matériels,0030905T,Gannat,Clermont-Ferrand,Allier,Public,90.3,46.085188044041715,3.1969198510015793
Lycée professionnel Val d'Allier,0030924N,Varennes-sur-Allier,Clermont-Ferrand,Allier,Public,79,46.31416697158447,3.4072499888773655
Lycée professionnel Pierre et Marie Curie - Lycée des métiers,0890053Z,Sens,Dijon,Yonne,Public,92.7,48.2021038987807,3.3030945374254426
Lycée polyvalent privé Jeanne d'Arc,0890064L,Avallon,Dijon,Yonne,Privé,103.2,47.487023618969054,3.9071719617785456
ECOLE PRIVE VICENTA ESTHETIQUE ET COIFFURE,0040550B,Manosque,Aix-Marseille,Alpes-de-Haute-Provence,Privé,,43.8209223322228,5.794210256711617
Lycée climatique polyvalent Honoré Romane,0050004C,Embrun,Aix-Marseille,Hautes-Alpes,Public,116.3,44.56908507085061,6.496330032867039
"LP Alpes et Durance - Lycée des métiers du bois, du ski et de l'énergie",0050005D,Embrun,Aix-Marseille,Hautes-Alpes,Public,112.1,44.556359738923646,6.486350055952641
