nom,uai,type_etablissement,commune,academie,departement,secteur,ips,latitude,longitude
Collège Les Capucins,0360016X,college,Châteauroux,Orléans-Tours,Indre,Public,101.7,46.80942263744407,1.6948998630657919
Lycée polyvalent George Sand,0360019A,lycee,La Châtre,Orléans-Tours,Indre,Public,100.7,46.58353972401974,1.9774405185490846
Collège Jean Rostand,0360038W,college,Tournon-Saint-Martin,Orléans-Tours,Indre,Public,96.3,46.735400754772115,0.9654505251056983
Lycée polyvalent privé Saint Cyr-Sainte Julitte,0360505D,lycee,Issoudun,Orléans-Tours,Indre,Privé,112.8,46.951906349048684,1.9969402386333848
Collège Jean Moulin,0360546Y,college,Saint-Gaultier,Orléans-Tours,Indre,Public,97,46.63434435047339,1.4228894805591905
Collège privé Saint Cyr-Sainte Julitte,0360568X,college,Issoudun,Orléans-Tours,Indre,Privé,113.7,46.95231961512883,1.997040399055048
Ecole secondaire privée Saint Michel,0360671J,lycee,Montierchaume,Orléans-Tours,Indre,Privé,,46.82650982010273,1.7643736180272631
Ecole professionnelle privée Philibert Vrau,0360860P,lycee,Montierchaume,Orléans-Tours,Indre,Privé,,46.82650982010273,1.7643736180272631
Lycée général et technologique Léonard de Vinci,0370001A,lycee,Amboise,Orléans-Tours,Indre-et-Loire,Public,117.5,47.40099688190214,0.9824105459079514
Réseau des collèges de Preuilly-sur-Claise et du Grand-Pressigny,0370026C,college,Preuilly-sur-Claise,Orléans-Tours,Indre-et-Loire,Public,92,46.85785744978883,0.9269202810017807
Lycée général et technologique Balzac,0370036N,lycee,Tours,Orléans-Tours,Indre-et-Loire,Public,118.1,47.3873257543265,0.6870804244411985
Collège François Rabelais,0370045Y,college,Tours,Orléans-Tours,Indre-et-Loire,Public,110.9,47.38534598920548,0.6757803644704092
Collège de Montrésor Jean Lévêque,0370051E,college,Montrésor,Orléans-Tours,Indre-et-Loire,Public,99.4,47.157101728779544,1.2035553857887766
Lycée général et technologique privé Grand Saint Gregoire,0370727P,lycee,Tours,Orléans-Tours,Indre-et-Loire,Privé,129.9,47.40126101536642,0.6837094447493431
Lycée général privé Saint Denis,0370737A,lycee,Loches,Orléans-Tours,Indre-et-Loire,Privé,140.9,47.127387402690786,0.9937400808624735
Collège privé Le Sacré-Coeur,0370739C,college,Richelieu,Orléans-Tours,Indre-et-Loire,Privé,110.1,47.01446083658151,0.322099650248644
"Lycée professionnel privé Notre Dame La Riche, sous le patronage de Saint Vincent de Paul",0370757X,lycee,Tours,Orléans-Tours,Indre-et-Loire,Privé,112.9,47.39025945012596,0.6763564087572175
Collège Pablo Neruda,0370767H,college,Saint-Pierre-des-Corps,Orléans-Tours,Indre-et-Loire,Public,103.1,47.39534124989182,0.7506599073076334
Collège Georges Besse,0370768J,college,Loches,Orléans-Tours,Indre-et-Loire,Public,97,47.12797565902744,0.9821006220178129
Collège Lamartine,0370769K,college,Tours,Orléans-Tours,Indre-et-Loire,Public,88.2,47.38422811064049,0.6681696907981866
Lycée professionnel Victor Laloux - Lycée des métiers de la distribution et des services,0370771M,lycee,Tours,Orléans-Tours,Indre-et-Loire,Public,92.4,47.35943478623753,0.702950004710244
Collège Arche du Lude,0370791J,college,Joué-lès-Tours,Orléans-Tours,Indre-et-Loire,Public,79.4,47.346168623440334,0.6506603450186224
Collège Montaigne,0370884K,college,Tours,Orléans-Tours,Indre-et-Loire,Public,107.4,47.42972005951443,0.6797197129702062
Collège Jules Romains,0370887N,college,Saint-Avertin,Orléans-Tours,Indre-et-Loire,Public,128.4,47.353432647038325,0.722590067133635
"Lycée professionnel d'Arsonval - Lycée des métiers d'art, de l'aménagement de l'espace et de la communication",0370888P,lycee,Joué-lès-Tours,Orléans-Tours,Indre-et-Loire,Public,100.5,47.3468747310573,0.6684495155026476
Collège Pierre Corneille,0370991B,college,Tours,Orléans-Tours,Indre-et-Loire,Public,98.4,47.37611461336685,0.7311393583111294
Collège Val de l'Indre,0370993D,college,Monts,Orléans-Tours,Indre-et-Loire,Public,116.8,47.27948743830694,0.6525693951303948
Collège La Bruyere,0371158H,college,Tours,Orléans-Tours,Indre-et-Loire,Public,92,47.419767086502176,0.681989836662814
Collège Jean Zay,0371159J,college,Chinon,Orléans-Tours,Indre-et-Loire,Public,102.4,47.16592299522881,0.2515601822924069
Collège Georges Brassens,0371204H,college,Esvres,Orléans-Tours,Indre-et-Loire,Public,113.8,47.29147713429939,0.7879405791826165
Collège Jean Roux,0371397T,college,Fondettes,Orléans-Tours,Indre-et-Loire,Public,126.4,47.4034590657236,0.6011700218261434
Collège René Cassin,0371403Z,college,Ballan-Miré,Orléans-Tours,Indre-et-Loire,Public,125.4,47.34372636575496,0.6126894067364336
Lycée général et technologique Jean Monnet,0371417P,lycee,Joué-lès-Tours,Orléans-Tours,Indre-et-Loire,Public,114.3,47.33883845163394,0.6589996608922724
Lycée polyvalent privé Esthétique de Touraine,0371532P,lycee,Tours,Orléans-Tours,Indre-et-Loire,Privé,111.1,47.382385473529055,0.6896802963722642
Lycée d'enseignement général et technologique agricole de la Côte-Saint-André,0381819W,lycee,La Côte-Saint-André,Grenoble,Isère,Public,,45.38828913077507,5.267560578548466
Lycée agricole privé Le Vallon - site Saint-Jean-de-Bournay,0382375A,lycee,Saint-Jean-de-Bournay,Grenoble,Isère,Privé,,45.501511938723624,5.143062446719342
Collège des Lacs,0390009Y,college,Clairvaux-les-Lacs,Besançon,Jura,Public,109.4,46.57421041228855,5.755289849794156
Lycée polyvalent Jacques Duhamel,0390013C,lycee,Dole,Besançon,Jura,Public,103.5,47.081704144203584,5.470800244287747
Collège Pierre-Hyacinthe Cazeaux,0390028U,college,Hauts de Bienne,Besançon,Jura,Public,91.4,46.51894080971157,6.025469973975638
Institution Saint Oyend,0390071R,college,Saint-Claude,Besançon,Jura,Privé,107.4,46.38839519945327,5.865762577914772
Collège privé Notre-Dame de la Salette,0390073T,college,Voiteur,Besançon,Jura,Privé,105.9,46.75085418898804,5.612639508017415
Collège Xavier Bichat,0390783P,college,Arinthod,Besançon,Jura,Public,99.6,46.39280180133507,5.563370202503507
Collège Lucien Febvre,0390785S,college,Saint-Amour,Besançon,Jura,Public,96.1,46.43887463703944,5.342547602703235
Lycée polyvalent Pré Saint Sauveur,0390786T,lycee,Saint-Claude,Besançon,Jura,Public,91.4,46.379792800805646,5.871529367759134
Lycée d'enseignement général et technologique agricole de Lons Le Saunier - Montmorot,0390810U,lycee,Montmorot,Besançon,Jura,Public,,46.689367915987745,5.510970533801388
Collège Les Louataux,0390961H,college,Champagnole,Besançon,Jura,Public,98.2,46.7337803680386,5.9265896649911625
Collège du Plateau,0391035N,college,Lavans-lès-Saint-Claude,Besançon,Jura,Public,95.5,46.39242834802411,5.7886534489811705
Collège privé Notre-Dame de l'Annonciation,0391048C,college,Cressia,Besançon,Jura,Privé,,46.52098076641974,5.483310381313706
Lycée polyvalent privé Pasteur Mont Roland,0391146J,lycee,Dole,Besançon,Jura,Privé,106.8,47.09388744490723,5.4900800443755715
Collège Jean Rostand,0400042D,college,Tartas,Bordeaux,Landes,Public,101.2,43.835613796083706,-0.8112290667403639
"Lycée professionnel Jean d'Arcet - Lycée des métiers de l'hôtellerie restauration, de la coiffure et de l'assistance à la gestion",0400047J,lycee,Aire-sur-l'Adour,Bordeaux,Landes,Public,84.2,43.69709542037719,-0.26904046228808925
Collège privé Vincent de Paul,0400068G,college,Saint-Vincent-de-Paul,Bordeaux,Landes,Privé,101.5,43.747140662752145,-1.0104150351577075
Collège privé Saint Jean Bosco,0400072L,college,Gabarret,Bordeaux,Landes,Privé,109.8,43.98492547729385,0.012166913656267967
Collège Lubet Barbon,0400103V,college,Saint-Pierre-du-Mont,Bordeaux,Landes,Public,97.4,43.87779141657054,-0.5093728558010466
Collège Jean Marie Lonne,0400727Y,college,Hagetmau,Bordeaux,Landes,Public,97.1,43.65467028534577,-0.5903718857251267
Collège L. Dussarrat dit Léon des Landes,0400729A,college,Dax,Bordeaux,Landes,Public,102,43.7053296231459,-1.0588430204792658
Collège Jean Rostand,0400779E,college,Mont-de-Marsan,Bordeaux,Landes,Public,105.7,43.886603281080404,-0.5020815201344144
Lycée privé St Jacques de Compostelle,0401016M,lycee,Dax,Bordeaux,Landes,Privé,124.9,43.694302535397505,-1.0582039516766046
Collège Henri EMMANUELLI,0401077D,college,Labrit,Bordeaux,Landes,Public,93,44.096541665756035,-0.5481411370790018
Lycée de Pontonx sur l'Adour,0401125F,lycee,Pontonx-sur-l'Adour,Bordeaux,Landes,Privé,,43.789753701357505,-0.9240437417192381
Lycée général et technologique F Philibert Dessaignes,0410002E,lycee,Blois,Orléans-Tours,Loir-et-Cher,Public,114,47.59544339381901,1.3387700845610522
Collège Hubert Fillay,0410005H,college,Bracieux,Orléans-Tours,Loir-et-Cher,Public,111.8,47.54904293908283,1.5470300474903584
Collège Lavoisier,0410015U,college,Oucques La Nouvelle,Orléans-Tours,Loir-et-Cher,Public,92.7,47.82263269827949,1.2976003785045163
Collège Maurice Genevoix,0410019Y,college,Romorantin-Lanthenay,Orléans-Tours,Loir-et-Cher,Public,96,47.36301182060434,1.7430494630193054
Collège Clément Janequin,0410566T,college,Montoire-sur-le-Loir,Orléans-Tours,Loir-et-Cher,Public,97.7,47.74926817540915,0.871280035992696
Collège Saint-Exupéry,0410595Z,college,Le Controis-en-Sologne,Orléans-Tours,Loir-et-Cher,Public,97.2,47.421745316184015,1.426202566860836
Collège Alphonse Kaar,0410596A,college,Mondoubleau,Orléans-Tours,Loir-et-Cher,Public,92.6,47.98121999742099,0.8993693796117779
Lycée d'enseignement général et technologique agricole de Vendôme - site de Blois,0410629L,lycee,Blois,Orléans-Tours,Loir-et-Cher,Public,,47.56564008668135,1.3259299132962856
Collège privé Saint Charles,0410678P,college,Blois,Orléans-Tours,Loir-et-Cher,Privé,106.2,47.588965778695474,1.3255528181556433
Collège privé Notre-Dame - Saint Joseph,0410681T,college,Mer,Orléans-Tours,Loir-et-Cher,Privé,116.1,47.70098215316235,1.5089997393246546
Collège Augustin Thierry,0410860M,college,Blois,Orléans-Tours,Loir-et-Cher,Public,108.5,47.596325638960444,1.3298701241331405
Collège Marie Curie,0410914W,college,Saint-Laurent-Nouan,Orléans-Tours,Loir-et-Cher,Public,104.7,47.71947141272932,1.6270904183321677
Collège François Rabelais,0410952M,college,Blois,Orléans-Tours,Loir-et-Cher,Public,66.4,47.59447793664912,1.3163799783909151
Ecole secondaire privée Académie Saint Louis,0411109H,lycee,Nouan-le-Fuzelier,Orléans-Tours,Loir-et-Cher,Privé,,,
Lycée général et technologique Albert Camus,0420013L,lycee,Firminy,Lyon,Loire,Public,91,45.38837031113133,4.283000546539635
Lycée général et technologique Beauregard,0420018S,lycee,Montbrison,Lyon,Loire,Public,114.8,45.61038124074128,4.055310496631448
Collège des Montagnes du Matin,0420023X,college,Panissières,Lyon,Loire,Public,104,45.78905515675083,4.343599614626882
Collège Gaston Baty,0420024Y,college,Pélussin,Lyon,Loire,Public,110.5,45.419883702905025,4.676049451786229
Collège Emile Falabrègue,0420038N,college,Saint-Bonnet-le-Château,Lyon,Loire,Public,106.4,45.42155324580736,4.068339378644801
"Lycée professionnel Benoît Charvet - Lycée des métiers du tertiaire, du sport, des services et des soins à la personne",0420049A,lycee,Saint-Etienne,Lyon,Loire,Public,78.8,45.44622168828953,4.377669445364675
Lycée professionnel Jacob Holtzer,0420073B,lycee,Firminy,Lyon,Loire,Public,78.2,45.387899381456975,4.291929737837772
Lycée professionnel Beauregard,0420075D,lycee,Montbrison,Lyon,Loire,Public,92.4,45.61038124074128,4.055310496631448
Lycée professionnel Carnot,0420076E,lycee,Roanne,Lyon,Loire,Public,88.1,46.0418401286625,4.069759965157606
Collège Puits de La Loire,0420916T,college,Saint-Etienne,Lyon,Loire,Public,76.4,45.44486266638672,4.3727497411511065
Lycée professionnel Benoît Fourneyron - Lycée des métiers de l'habitat et des énergies - Lycée des métiers de l'armurerie,0420958N,lycee,Saint-Etienne,Lyon,Loire,Public,86.1,45.417963281017286,4.422770275796339
Lycée général et technologique privé Sainte Marie La Grand'Grange,0421022H,lycee,Saint-Chamond,Lyon,Loire,Privé,122.6,45.47168835364804,4.5225304260606425
Lycée général privé Saint Paul,0421023J,lycee,Roanne,Lyon,Loire,Privé,122.2,46.038858973683446,4.07055026784956
Lycée général et technologique privé Sévigné,0421034W,lycee,Saint-Etienne,Lyon,Loire,Privé,119.9,45.431415366788315,4.397579941072392
Collège privé Saint Joseph,0421044G,college,Le Chambon-Feugerolles,Lyon,Loire,Privé,96.3,45.39711908350785,4.325279458046782
Collège privé Saint Jean,0421049M,college,Pélussin,Lyon,Loire,Privé,107.5,45.41796860733925,4.6763702697472835
Lycée d'enseignement généraltechnologique et professionnel de Roanne Chervé,0421078U,lycee,Perreux,Lyon,Loire,Public,,46.0257610857597,4.107659566972007
Collège Pierre et Marie Curie,0421171V,college,La Talaudière,Lyon,Loire,Public,113.1,45.481236109835805,4.438050101133954
Collège Jules Vallès,0421176A,college,Saint-Etienne,Lyon,Loire,Public,65.1,45.44597671688978,4.400360397819424
Lycée professionnel agricole de Villars - Montravel,0421210M,lycee,Villars,Lyon,Loire,Public,,45.47471762804849,4.350620178322524
Collège Marc Seguin,0421451Z,college,Saint-Etienne,Lyon,Loire,Public,75.8,45.465018037373156,4.408860006920129
Collège Jacques Prévert,0421487N,college,Andrézieux-Bouthéon,Lyon,Loire,Public,100.9,45.52948793571253,4.266710174692869
Collège Les Bruneaux,0421570D,college,Firminy,Lyon,Loire,Public,79.9,45.38055274163099,4.279589776387666
Collège privé Saint Paul,0421797A,college,Roanne,Lyon,Loire,Privé,114,46.04266634493964,4.0741005979914835
"Lycée d'enseignement général, technologique et professionnel agricole de Ranne Chervé-Noirétable",0421858S,lycee,Noirétable,Lyon,Loire,Public,,45.818837362917726,3.7652500580000403
Lycée général et technologique François Mauriac-Forez,0421976V,lycee,Andrézieux-Bouthéon,Lyon,Loire,Public,119.2,45.53022390708379,4.270521009137955
Lycée professionnel privé Sainte Anne,0421979Y,lycee,Roanne,Lyon,Loire,Privé,109.2,46.03633732426127,4.0626095149588455
Ecole professionnelle privée de l'Association forézienne d'Ecoles de Production,0422052C,lycee,Saint-Etienne,Lyon,Loire,Privé,,45.41627945221119,4.384479857498315
Collège Léonard de Vinci,0422136U,college,Saint-Romain-le-Puy,Lyon,Loire,Public,98.4,45.553719754125,4.126949797075701
"Lycée polyvalent privé La Salésienne - Lycée des métiers des biotechnologies, des services aux personnes et aux collectivités",0422158T,lycee,Saint-Etienne,Lyon,Loire,Privé,96.3,45.438972211515114,4.402060614850185
Ecole technique privée - Ecole de production La Plane,0422401G,lycee,Montbrison,Lyon,Loire,Privé,,,
Collège des Hauts de L'Arzon,0430010C,college,Craponne-sur-Arzon,Clermont-Ferrand,Haute-Loire,Public,98.3,45.32652197329684,3.844357375026
Collège Robert Louis Stevenson,0430012E,college,Landos,Clermont-Ferrand,Haute-Loire,Public,97.2,44.83981825329537,3.8328704000998792
Lycée général et technologique Simone Weil,0430021P,lycee,Le Puy-en-Velay,Clermont-Ferrand,Haute-Loire,Public,112.4,45.04881318010798,3.894879544409612
Lycée professionnel Jean Monnet - Lycée des métiers,0430024T,lycee,Le Puy-en-Velay,Clermont-Ferrand,Haute-Loire,Public,88.1,45.03691203653333,3.8869996845970816
Collège La Fayette,0430025U,college,Le Puy-en-Velay,Clermont-Ferrand,Haute-Loire,Public,101,45.043580980649175,3.8860600543876944
Collège Joachim Barrande,0430032B,college,Saugues,Clermont-Ferrand,Haute-Loire,Public,107.9,44.95708540300156,3.5465304074651516
Lycée polyvalent privé Saint Julien,0430053Z,lycee,Brioude,Clermont-Ferrand,Haute-Loire,Privé,106.6,45.29104323529904,3.3882295451355002
Collège privé Saint Joseph,0430086K,college,Saint-Julien-Chapteuil,Clermont-Ferrand,Haute-Loire,Privé,111.5,45.035023296089186,4.061700308035965
Collège privé Saint-Martin,0430093T,college,Tence,Clermont-Ferrand,Haute-Loire,Privé,107.5,45.11543848604263,4.289730030565818
"Lycée d'enseignement général, technologique et professionnel agricole de Fontannes",0430112N,lycee,Fontannes,Clermont-Ferrand,Haute-Loire,Public,,45.291921400767826,3.4234133520903622
Collège du Lignon,0430820H,college,Le Chambon-sur-Lignon,Clermont-Ferrand,Haute-Loire,Public,98.7,45.05950766068352,4.298549588862004
Lycée agricole privé Eugène Joubert - Yssingeaux,0430842G,lycee,Yssingeaux,Clermont-Ferrand,Haute-Loire,Privé,,45.141771366937945,4.1222265067035195
Collège privé Saint Julien,0430898T,college,Brioude,Clermont-Ferrand,Haute-Loire,Privé,104.6,45.29131367149943,3.3889203037554627
Collège privé La Chartreuse,0430899U,college,Brives-Charensac,Clermont-Ferrand,Haute-Loire,Privé,112.2,45.05496697107389,3.912619640626833
Lycée polyvalent Emmanuel Chabrier,0430953C,lycee,Yssingeaux,Clermont-Ferrand,Haute-Loire,Public,104.4,45.12962176449184,4.123309377700316
Collège des Gorges de la Loire,0430987P,college,Aurec-sur-Loire,Clermont-Ferrand,Haute-Loire,Public,105,45.36890718676442,4.189490472729531
Lycée polyvalent Joubert - Emilien Maillard,0440001M,lycee,Ancenis-Saint-Géréon,Nantes,Loire-Atlantique,Public,106.5,47.37537909669732,-1.1817713728384345
Lycée Polyvalent Gaspard Monge - La Chauvinière - Lycée des métiers,0440030U,lycee,Nantes,Nantes,Loire-Atlantique,Public,110.5,47.2540961307008,-1.5729705683673285
Collège René-Guy Cadou,0440147W,college,Ancenis-Saint-Géréon,Nantes,Loire-Atlantique,Public,100.8,47.382677791730764,-1.186265766061345
Lycée général privé Saint Louis,0440177D,lycee,Saint-Nazaire,Nantes,Loire-Atlantique,Privé,135.3,47.26853420950614,-2.2192895608755503
Collège privé Saint Joseph,0440199C,college,Ligné,Nantes,Loire-Atlantique,Privé,116.8,47.409494175843385,-1.373940614749704
Lycée général et technologique privé Saint Joseph,0440201E,lycee,Machecoul-Saint-Même,Nantes,Loire-Atlantique,Privé,120.5,46.993742201941075,-1.8235502189487176
Collège privé Saint Blaise,0440244B,college,Vertou,Nantes,Loire-Atlantique,Privé,135,47.16559544216249,-1.4689899551138574
Lycée professionnel privé Le Masle,0440282T,lycee,Saint-Nazaire,Nantes,Loire-Atlantique,Privé,104.2,47.27222992731064,-2.2059306012613367
Collège Alice Milliat,0440308W,college,Blain,Nantes,Loire-Atlantique,Public,100.7,47.48034940390784,-1.7615696667523142
Lycée professionnel maritime Jacques Cassard,0442092K,lycee,Nantes,Nantes,Loire-Atlantique,Public,,47.24034471009416,-1.53248985791962
Collège Montesquieu,0311093V,college,Cugnaux,Toulouse,Haute-Garonne,Public,106.5,43.53835713358475,1.3504095337910011
Collège privé Joseph Niel,0311130K,college,Muret,Toulouse,Haute-Garonne,Privé,128.8,43.459836163830474,1.3140012649941166
Collège privé Sainte-Marie des Ursulines,0311148E,college,Toulouse,Toulouse,Haute-Garonne,Privé,126,43.608706283850054,1.4594463098504673
Collège Maurice Bécanne,0311231V,college,Toulouse,Toulouse,Haute-Garonne,Public,95.4,43.584375771338,1.4245700135225179
Collège Jean Jaurès,0311238C,college,Colomiers,Toulouse,Haute-Garonne,Public,100.6,43.606870866460284,1.3400794663519615
Lycée agricole privé Saint-François de Labège,0311270M,lycee,Labège,Toulouse,Haute-Garonne,Privé,,43.53692005248214,1.522168392284383
Collège Louisa Paulin,0311319R,college,Muret,Toulouse,Haute-Garonne,Public,91.4,43.470537081314674,1.334460201776182
Lycée professionnel Gisèle Halimi,0311324W,lycee,Toulouse,Toulouse,Haute-Garonne,Public,85,43.584518442901285,1.3975365460346079
Collège Les Chalets,0311328A,college,Toulouse,Toulouse,Haute-Garonne,Public,112.2,43.61523934074782,1.4387895339952173
Collège Jean Moulin,0311333F,college,Toulouse,Toulouse,Haute-Garonne,Public,106.6,43.573788312771015,1.455089487439257
Lycée polyvalent Edmond Rostand - Lycée des métiers de la première transformation du bois,0311334G,lycee,Bagnères-de-Luchon,Toulouse,Haute-Garonne,Public,118.6,42.7921570492819,0.5986195406197539
Collège Emile Zola,0311338L,college,Toulouse,Toulouse,Haute-Garonne,Public,111.7,43.5884511989143,1.449119655906303
Collège André Abbal,0311580Z,college,Carbonne,Toulouse,Haute-Garonne,Public,107.4,43.306165430887496,1.229580081245549
Collège Jean Mermoz,0311581A,college,Blagnac,Toulouse,Haute-Garonne,Public,100.6,43.64496089107707,1.3800705312935582
Collège Les Violettes,0311632F,college,Aucamville,Toulouse,Haute-Garonne,Public,105,43.67500395133333,1.4234100986103841
Collège André Malraux,0311633G,college,Ramonville-Saint-Agne,Toulouse,Haute-Garonne,Public,111,43.55015495500798,1.4811805788679022
Collège Alain Savary,0311721C,college,Fronton,Toulouse,Haute-Garonne,Public,119.2,43.834855180977634,1.3837100925265673
Ecole générale et technologique privée de photographie et d'audiovisuel,0311758T,lycee,Auzeville-Tolosane,Toulouse,Haute-Garonne,Privé,,43.528353934442976,1.4898034646193663
Collège Léo Ferré,0311772H,college,Saint-Lys,Toulouse,Haute-Garonne,Public,113,43.51336840342611,1.1848497397132158
Lycée professionnel privé Sainte-Marie de Nevers,0311970Y,lycee,Toulouse,Toulouse,Haute-Garonne,Privé,113.2,43.60727282133117,1.4434178459200382
Collège Victor Hugo,0312092F,college,Colomiers,Toulouse,Haute-Garonne,Public,131,43.61616138386665,1.3086294366023659
Collège Daniel Sorano,0312220V,college,Pins-Justaret,Toulouse,Haute-Garonne,Public,123.3,43.48382505930237,1.3875806106085735
Collège privé OHR Torah,0312284P,college,Toulouse,Toulouse,Haute-Garonne,Privé,125.5,43.62182467981227,1.4620447858234036
Collège Léonard de Vinci,0312307P,college,Tournefeuille,Toulouse,Haute-Garonne,Public,131,43.59287839583914,1.3243799449232971
Collège Galilée,0312612W,college,La Salvetat-Saint-Gilles,Toulouse,Haute-Garonne,Public,115.8,43.571176916499155,1.246749402392155
Lycée général Pierre Bourdieu,0312696M,lycee,Fronton,Toulouse,Haute-Garonne,Public,128.1,43.834565378736535,1.400993342349287
Collège Jean Dieuzaide,0312700S,college,Pechbonnieu,Toulouse,Haute-Garonne,Public,123,43.705531988373785,1.4613999079727615
ECOLE PRIVE SUPERIEURE D'ESTHETIQUE SILVYA TERRADE TOULOUSE SAINT-AGNE,0312745R,lycee,Toulouse,Toulouse,Haute-Garonne,Privé,,43.60021420207189,1.4435796191735912
Collège Pierre Mendès-France,0312843X,college,Labarthe-sur-Lèze,Toulouse,Haute-Garonne,Public,117.7,43.464708879779174,1.3990403687447786
Collège Nelson Mandela,0312868Z,college,Noé,Toulouse,Haute-Garonne,Public,110.7,43.3476068891608,1.2498604134171007
Lycée général et technologique Nelson Mandela,0312938A,lycee,Pibrac,Toulouse,Haute-Garonne,Public,133,43.60765387044453,1.2831506131728827
Collège Lionel Jospin,0313045S,college,Cintegabelle,Toulouse,Haute-Garonne,Public,109,43.30551982403295,1.528577941874553
COLLEGE PRIVE ARBORESCENCES 31,0313059G,college,La Salvetat-Saint-Gilles,Toulouse,Haute-Garonne,Privé,,43.58339222933824,1.2768901719777568
Collège Ginette Kolinka,0313081F,college,Seysses,Toulouse,Haute-Garonne,Public,109.6,43.48997022508272,1.2802715243853375
Collège privé hors contrat Frizbi,0313175H,college,Rouède,Toulouse,Haute-Garonne,Privé,,,
Collège public Lucie Aubrac,0320001C,college,Aignan,Toulouse,Gers,Public,101.6,43.697970090353195,0.08831939522128496
Collège privé Saint-Christophe,0320004F,college,Masseube,Toulouse,Gers,Privé,117.6,43.41052238600298,0.5839299275639492
Collège Maréchal Lannes,0320017V,college,Lectoure,Toulouse,Gers,Public,104.4,43.93043974338,0.6287702255903832
Collège Aretha Franklin,0320019X,college,Marciac,Toulouse,Gers,Public,120.4,43.52243445332976,0.15746187772772768
Lycée polyvalent d'Artagnan - Lycée des métiers,0320025D,lycee,Nogaro,Toulouse,Gers,Public,97.3,43.754191900515664,-0.02795020609659151
Collège François de Belleforest,0320031K,college,Samatan,Toulouse,Gers,Public,103.9,43.49632914555622,0.927399603273065
Lycée professionnel Pardailhan,0320040V,lycee,Auch,Toulouse,Gers,Public,92.4,43.6535380428107,0.5782599284624552
Collège privé Notre-Dame de Piétat,0320059R,college,Condom,Toulouse,Gers,Privé,106.2,43.961964152897075,0.3670395566213332
Collège Vasconie,0320074G,college,Miélan,Toulouse,Gers,Public,102.8,43.42456818356153,0.3079504508475112
Lycée professionnel agricole de Mirande,0320557G,lycee,Mirande,Toulouse,Gers,Public,,43.530135187261926,0.40170998247081985
Collège Simone Veil,0320608M,college,Masseube,Toulouse,Gers,Public,106.1,43.42952824012337,0.5752696660163286
Institut agricole privé de Masseube,0320633P,lycee,Masseube,Toulouse,Gers,Privé,,43.41079797279392,0.5853900071362458
Collège privé Oratoire Sainte-Marie,0320650H,college,Auch,Toulouse,Gers,Privé,121.8,43.64832174388088,0.5809089302645907
Collège Françoise Héritier,0320740F,college,L'Isle-Jourdain,Toulouse,Gers,Public,117.6,43.60640611986727,1.0763105176510857
Lycée général et technologique Gisèle Halimi,0330010G,lycee,Bazas,Bordeaux,Gironde,Public,111,44.433276909488676,-0.21405325574721157
Lycée général Montesquieu,0330022V,lycee,Bordeaux,Bordeaux,Gironde,Public,126.4,44.850302703767035,-0.5820502060798751
Lycée polyvalent Gustave Eiffel,0330028B,lycee,Bordeaux,Bordeaux,Gironde,Public,123.8,44.82891084178311,-0.564361965386203
Collège Paul Emile Victor,0330058J,college,Branne,Bordeaux,Gironde,Public,105.6,44.824405075535346,-0.18413512768718163
Collège Aliénor d'Aquitaine,0330064R,college,Castillon-la-Bataille,Bordeaux,Gironde,Public,85.8,44.85113390318635,-0.05064821201151862
Collège Jules Chambrelent,0330081J,college,Hourtin,Bordeaux,Gironde,Public,107.6,45.19053332213172,-1.0579884345420385
Collège François Mitterrand,0330106L,college,Pessac,Bordeaux,Gironde,Public,96.2,44.7919202102726,-0.6450723665147032
Collège Niki de Saint Phalle,0330132P,college,Villenave-d'Ornon,Bordeaux,Gironde,Public,104.7,44.7804427885347,-0.5676769496213447
Collège Jean Aviotte,0330138W,college,Guîtres,Bordeaux,Gironde,Public,95.6,45.04162784600899,-0.18546107752025037
Collège Gisèle Halimi,0330146E,college,Mérignac,Bordeaux,Gironde,Public,99,44.84199629660682,-0.6510234523453694
Collège Marie Bartette,0330167C,college,Arcachon,Bordeaux,Gironde,Public,110.8,44.652973382409385,-1.163537678335056
Lycée professionnel Les Chartrons,0331460H,lycee,Bordeaux,Bordeaux,Gironde,Public,86,44.85585713131863,-0.5733044623896109
Lycée général privé Saint Elme,0331488N,lycee,Arcachon,Bordeaux,Gironde,Privé,134.7,44.65537882486955,-1.15258186496156
Lycée général et technologique privé L'Assomption Ste Clotilde,0331495W,lycee,Bordeaux,Bordeaux,Gironde,Privé,138.6,44.8520192458742,-0.5945713839434625
Collège privé Notre-Dame Sévigné,0331500B,college,Talence,Bordeaux,Gironde,Privé,129.9,44.81140314927386,-0.5928976934337254
Collège privé Notre-Dame,0331528G,college,Lesparre-Médoc,Bordeaux,Gironde,Privé,107.5,45.30720959961555,-0.9377808291559515
Ecole technique privée d'Esthétique Françoise B - Groupe Sylvia Terrade,0331557N,lycee,Bordeaux,Bordeaux,Gironde,Privé,,44.85904003849235,-0.5713190002802311
Lycée technologique privé Bel Orme,0331591A,lycee,Bordeaux,Bordeaux,Gironde,Privé,122.7,44.849789279906226,-0.5941612521143088
Lycée professionnel Marcel Dassault,0331668J,lycee,Mérignac,Bordeaux,Gironde,Public,92.4,44.83486785364598,-0.6489183011970837
Collège Marcellin Berthelot,0331752A,college,Bègles,Bordeaux,Gironde,Public,123.5,44.80803893230587,-0.5669685273908109
Collège Noés,0331758G,college,Pessac,Bordeaux,Gironde,Public,131.6,44.81239564947373,-0.6365605898369852
Lycée général et technologique Fernand Daguin,0331760J,lycee,Mérignac,Bordeaux,Gironde,Public,122.7,44.83682516582882,-0.6499132105541034
Collège Montaigne,0331895F,college,Lormont,Bordeaux,Gironde,Public,85.8,44.87379527053053,-0.5168973506847918
Collège Hastignan,0332187Y,college,Saint-Médard-en-Jalles,Bordeaux,Gironde,Public,120.1,44.89377341980709,-0.7448289417985248
Collège Nelson Mandela,0332189A,college,Floirac,Bordeaux,Gironde,Public,92,44.8388487614692,-0.5331585713029526
Collège Gérard Philipe,0332191C,college,Pessac,Bordeaux,Gironde,Public,100.6,44.79932118511685,-0.6224595402738479
"Lycée polyvalent hôtelier Gascogne - Lycée des métiers de l'hôtellerie, de la gastronomie et du tourisme",0332192D,lycee,Talence,Bordeaux,Gironde,Public,111.3,44.79617208736641,-0.5934223515522604
Collège Victor Louis,0332195G,college,Talence,Bordeaux,Gironde,Public,106.6,44.79915827220669,-0.592577907791748
Collège privé Saint Clément,0332327A,college,Cudos,Bordeaux,Gironde,Privé,110.5,44.39081424407428,-0.21371966271956455
Lycée professionnel Philadelphe de Gerde - Lycée des métiers de l'économie responsable et des métiers de la transition numérique et énergétique,0332345V,lycee,Pessac,Bordeaux,Gironde,Public,90.7,44.78732507978232,-0.6524476036756898
Lycée polyvalent Philippe Cousteau,0332346W,lycee,Saint-André-de-Cubzac,Bordeaux,Gironde,Public,92.4,44.991338011584176,-0.4500091815689921
Lycée agricole privé Agir - site de Langon,0332376D,lycee,Langon,Bordeaux,Gironde,Privé,,44.554242170270705,-0.24856059294009034
Lycée professionnel Alphonse Beau de Rochas - Lycée des métiers de l'automobile,0332445D,lycee,Bordeaux,Bordeaux,Gironde,Public,96,44.86652816851035,-0.5675028657905554
Collège Porte du Médoc,0332569N,college,Parempuyre,Bordeaux,Gironde,Public,111.8,44.94687903803427,-0.5987639949616868
Ecole secondaire privée Notre Dame du Rosaire,0332601Y,lycee,Saint-Macaire,Bordeaux,Gironde,Privé,,44.56384135642509,-0.2315875442692299
Lycée général et technologique Pape Clément,0332722E,lycee,Pessac,Bordeaux,Gironde,Public,128.8,44.808566903215194,-0.6509307771425563
Collège Emile Durkheim,0332723F,college,Peujard,Bordeaux,Gironde,Public,106.6,45.04328189903859,-0.42180290721620245
Collège Elise Deroche,0332934K,college,Le Pian-sur-Garonne,Bordeaux,Gironde,Public,104,44.56962001444899,-0.2279028558482729
Collège de Lacanau,0333287U,college,Lacanau,Bordeaux,Gironde,Public,116.8,44.987435039854766,-1.0881781291212305
Ecole Edeys - Eysines,0333511M,college,Eysines,Bordeaux,Gironde,Privé,,44.876721733932236,-0.6414450273581798
Collège de Saint-Selve,0333528F,college,Saint-Selve,Bordeaux,Gironde,Public,116.9,44.666981205309554,-0.48412192751892213
Collège Wangari Maathai,0333529G,college,Le Pian-Médoc,Bordeaux,Gironde,Public,117.6,44.93843270554712,-0.7030367945433198
Collège EIN GEDI - Etablissement expérimental et innovant au service des jeunes ayant une déficience intellectuelle,0333536P,college,Bordeaux,Bordeaux,Gironde,Privé,,44.825568631462524,-0.5883204364671979
Lycée Général et Technologique EIN GEDI - Etablissement expérimental et innovant au service des jeunes ayant une déficience intellectuelle,0333537R,lycee,Bordeaux,Bordeaux,Gironde,Privé,,44.825568631462524,-0.5883204364671979
Collège Privé Cours la Merci Notre Dame,0333560R,college,Saint-Maixant,Bordeaux,Gironde,Privé,,44.566903198284066,-0.23705268954735365
Akadémie Collège,0333603M,college,Saint-Médard-en-Jalles,Bordeaux,Gironde,Privé,,44.894068357775595,-0.7700936901917146
Ecole secondaire privée Res'paix de Carcans,0333662B,college,Carcans,Bordeaux,Gironde,Privé,,45.06883949174461,-1.1408499791250155
"Lycée polyvalent Jean Moulin, Lycée des métiers de l'industrie et du sanitaire et social",0340011C,lycee,Béziers,Montpellier,Hérault,Public,91.9,43.341574183041544,3.234960537620778
Collège La Dullague,0340016H,college,Béziers,Montpellier,Hérault,Public,78.1,43.343229897748,3.23350544036122
Collège Jules Ferry,0340021N,college,Cazouls-lès-Béziers,Montpellier,Hérault,Public,96.7,43.38981544242731,3.1016801845991324
Lycée général et technologique René Gosse,0340023R,lycee,Clermont-l'Hérault,Montpellier,Hérault,Public,113.3,43.62619062281289,3.4319695002429342
Lycée polyvalent Louis Feuillade,0340030Y,lycee,Lunel,Montpellier,Hérault,Public,98.7,43.67093719748441,4.122410515711992
Collège Jules Ferry,0340037F,college,Montagnac,Montpellier,Hérault,Public,90.3,43.48212992039745,3.4809603368919344
Lycée général et technologique Joffre,0340038G,lycee,Montpellier,Montpellier,Hérault,Public,132.4,43.61207825608604,3.884709803165587
Lycée polyvalent Jules Guesde,0340040J,lycee,Montpellier,Montpellier,Hérault,Public,107.3,43.61171607580439,3.847970077404897
Lycée polyvalent Jean Mermoz,0340042L,lycee,Montpellier,Montpellier,Hérault,Public,105,43.61163282220374,3.890880204057631
Collège Fontcarrade,0340051W,college,Montpellier,Montpellier,Hérault,Public,85.3,43.60758772509732,3.8541700721384133
Collège Antoine Faure,0340057C,college,Olonzac,Montpellier,Hérault,Public,102.8,43.28197959513501,2.729910001744205
Collège Louis Cahuzac,0340063J,college,Quarante,Montpellier,Hérault,Public,105.1,43.344258638871864,2.96429025335723
Collège Les Garrigues,0340109J,college,Montpellier,Montpellier,Hérault,Public,75.1,43.64264400980377,3.817089710403796
Lycée général et technologique privé La Trinité,0340871M,lycee,Béziers,Montpellier,Hérault,Privé,133.9,43.34629188133018,3.21988965021648
Collège privé Sainte Madeleine,0340891J,college,Béziers,Montpellier,Hérault,Privé,109.6,43.34485448041844,3.2116897046799635
Collège privé Sainte Marie - La Salle,0340899T,college,Montpellier,Montpellier,Hérault,Privé,141.2,43.60461494309232,3.8511601636542077
Collège privé Saint-Jean-Baptiste de La Salle,0340902W,college,Montpellier,Montpellier,Hérault,Privé,148.3,43.615259249401625,3.8797094811146304
Collège privé Saint Charles,0340908C,college,Saint-Georges-d'Orques,Montpellier,Hérault,Privé,127.9,43.60794101965969,3.786388868504928
"Lycée professionnel privé Turgot, lycée des métiers de la santé et du social",0340920R,lycee,Montpellier,Montpellier,Hérault,Privé,114.6,43.63749065391683,3.832860282169425
Collège Georges Brassens,0341028H,college,Lattes,Montpellier,Hérault,Public,118.4,43.566967269288355,3.8996797336978717
Collège Jean Perrin,0341066Z,college,Béziers,Montpellier,Hérault,Public,75.1,43.343281963730874,3.2393197678350987
Ecole professionnelle privée Silvya Terrade Béziers,0341123L,lycee,Béziers,Montpellier,Hérault,Privé,,43.36086100693382,3.2470001785960556
Collège Katia et Maurice Krafft,0341321B,college,Béziers,Montpellier,Hérault,Public,79.2,43.336826651792556,3.2495802249959187
Collège Alfred Crouzet,0341387Y,college,Servian,Montpellier,Hérault,Public,106.3,43.42378098593832,3.306980153015429
Lycée agricole privé de Capestang,0341471P,lycee,Capestang,Montpellier,Hérault,Privé,,43.327593462420545,3.0479799963976117
Collège Marcel Pagnol,0341592W,college,Montpellier,Montpellier,Hérault,Public,83.1,43.59644765313416,3.8467403698128533
Ecole professionnelle privée Silvya Terrade Montpellier,0341651K,lycee,Montpellier,Montpellier,Hérault,Privé,,43.605030127830645,3.87813976873167
Collège Philippe Lamour,0341656R,college,La Grande-Motte,Montpellier,Hérault,Public,108.4,43.56461746134733,4.071979878098974
Ecole privée bilingue internationale,0342019K,lycee,Baillargues,Montpellier,Hérault,Privé,,43.64952764780408,4.004960081993629
Collège Ray Charles,0342077Y,college,Fabrègues,Montpellier,Hérault,Public,116.3,43.56087378323733,3.7896900742325434
Collège Max Rouquette,0342186S,college,Saint-André-de-Sangonis,Montpellier,Hérault,Public,106.3,43.654669944944196,3.497920222347313
Ecole du second degré professionnelle privée Adonis,0342264B,lycee,Montpellier,Montpellier,Hérault,Privé,,43.60671474160654,3.8787896643848705
"Lycée général, Cité scolaire Françoise Combes",0342266D,lycee,Montpellier,Montpellier,Hérault,Public,117.7,43.62051545883088,3.8785601443017943
Lycée d'enseignement général privé Saint-Guilhem,0342298N,lycee,Clermont-l'Hérault,Montpellier,Hérault,Privé,125.8,43.62965446659364,3.440580166640524
L'école des métiers de la coiffure (Ecole du second degré professionnel privée),0342333B,lycee,Jacou,Montpellier,Hérault,Privé,,43.66132479737221,3.903976862094507
Ecole privée Lutherie Lès Maguelone (Ecole second degré prof privée ),0342383F,lycee,Villeneuve-lès-Maguelone,Montpellier,Hérault,Privé,,43.53256413638457,3.862280493380302
Collège Pierre Brossolette,0350002M,college,Bruz,Rennes,Ille-et-Vilaine,Public,113.2,48.021013875335434,-1.7441403383784257
Lycée général et technologique Beaumont - Lycée des métiers,0350022J,lycee,Redon,Rennes,Ille-et-Vilaine,Public,110.6,47.65518979610839,-2.0929503096429127
Lycée général François-René de Chateaubriand,0350710G,lycee,Rennes,Rennes,Ille-et-Vilaine,Public,139.1,48.1233633632789,-1.6494796949846533
Collège Cleunay,0350760L,college,Rennes,Rennes,Ille-et-Vilaine,Public,95,48.098814254968495,-1.709250420726049
"Lycée polyvalent privé Marcel Callo - Lycée des métiers de l'industrie, de l'automobile et de l'aéronautique",0350791V,lycee,Redon,Rennes,Ille-et-Vilaine,Privé,109.5,47.65480868230408,-2.080959469427167
Collège privé Saint Joseph,0350853M,college,Cancale,Rennes,Ille-et-Vilaine,Privé,110.4,48.67452938898222,-1.849639975899824
Collège privé Sainte Croix,0350855P,college,Châteaugiron,Rennes,Ille-et-Vilaine,Privé,127.9,48.04588466664549,-1.500000075305421
Collège privé Saint Michel,0350867C,college,Liffré,Rennes,Ille-et-Vilaine,Privé,126.1,48.21229867442835,-1.5078597967670593
Collège privé Saint Joseph,0350868D,college,Martigné-Ferchaud,Rennes,Ille-et-Vilaine,Privé,106.4,47.831060407371446,-1.3157002102063906
Collège privé Sainte Marie,0350869E,college,Val d'Anast,Rennes,Ille-et-Vilaine,Privé,96.6,47.89384834919044,-1.9932393980803262
Collège privé La Providence,0350870F,college,Montauban-de-Bretagne,Rennes,Ille-et-Vilaine,Privé,115.7,48.19862222136569,-2.045029640651294
Collège privé Saint Joseph,0350877N,college,Pleine-Fougères,Rennes,Ille-et-Vilaine,Privé,98.9,48.53561487544822,-1.5663896338484005
Collège privé Sainte Anne,0350882U,college,Saint-Aubin-du-Cormier,Rennes,Ille-et-Vilaine,Privé,110.8,48.25646468084622,-1.3977996740691996
Collège privé Sacré-Coeur,0350889B,college,Saint-Jouan-des-Guérets,Rennes,Ille-et-Vilaine,Privé,121.3,48.63333521927198,-2.0187000311734407
Collège Clotilde Vautier,0350913C,college,Rennes,Rennes,Ille-et-Vilaine,Public,88.2,48.126256483139166,-1.6679296130380918
Lycée professionnel agricole de Saint-Aubin-du-Cormier,0350940G,lycee,Saint-Aubin-du-Cormier,Rennes,Ille-et-Vilaine,Public,,48.268577459188606,-1.4264804730246305
Collège Mahatma Gandhi,0350967L,college,Fougères,Rennes,Ille-et-Vilaine,Public,81.2,48.367553590717336,-1.1804104642000366
Lycée agricole privé Saint-Exupéry de Rennes,0351047Y,lycee,Rennes,Rennes,Ille-et-Vilaine,Privé,,48.131899007420806,-1.7111699381214776
Lycée professionnel Coetlogon,0351878B,lycee,Rennes,Rennes,Ille-et-Vilaine,Public,87,48.12226809845311,-1.6935999776082487
Lycée polyvalent privé La Providence,0351930H,lycee,Montauban-de-Bretagne,Rennes,Ille-et-Vilaine,Privé,117.4,48.1984832148307,-2.0453494527027036
Lycée général et technologique Victor et Hélène Basch,0352009U,lycee,Rennes,Rennes,Ille-et-Vilaine,Public,117.3,48.126584334179064,-1.6893397892166615
Collège privé Saint Vincent-Providence,0352069J,college,Rennes,Rennes,Ille-et-Vilaine,Privé,142.7,48.11363570912166,-1.6651100452186143
Collège Victor Ségalen,0352248D,college,Châteaugiron,Rennes,Ille-et-Vilaine,Public,126.4,48.04311219255292,-1.4971700484694253
Ecole professionnelle privée de coiffure et d'esthétique Silvya Terrade Solférino,0352267Z,lycee,Rennes,Rennes,Ille-et-Vilaine,Privé,,48.10427078014932,-1.6691603554365275
Collège Pierre-Olivier Malherbe,0352448W,college,Châteaubourg,Rennes,Ille-et-Vilaine,Public,115.1,48.114621032000635,-1.3864298551830252
Lycee general et technologique Francois Rene de Chateaubriand,0352533N,lycee,Combourg,Rennes,Ille-et-Vilaine,Public,117.8,48.41525130917533,-1.7416202300524102
Ecole internationale de coiffure et d'esthétique Silvya Terrade,0352804H,lycee,Fougères,Rennes,Ille-et-Vilaine,Privé,,48.3529812886534,-1.1964595662605197
Ecole démocratique NOESIS,0352921K,college,Guignen,Rennes,Ille-et-Vilaine,Privé,,47.9102323393805,-1.8283103180893239
Collège Françoise-Elie,0352958A,college,Bréal-sous-Montfort,Rennes,Ille-et-Vilaine,Public,113.2,48.04628346107779,-1.8609149928539739
Collège privé Saint-Paul,0353083L,college,Saint-Erblon,Rennes,Ille-et-Vilaine,Privé,124.8,48.01926316797129,-1.6623443238792899
Ecole secondaire privée hors-contrat La Maison Sainte-Anne,0353139X,college,Montauban-de-Bretagne,Rennes,Ille-et-Vilaine,Privé,,48.204927313354034,-2.102906149678959
Collège privé Diwan Skolaj 35,0353153M,college,La Bouëxière,Rennes,Ille-et-Vilaine,Privé,,,
Lycée général Rollinat,0360002G,lycee,Argenton-sur-Creuse,Orléans-Tours,Indre,Public,110.5,46.588916467517606,1.511839645859726
Lycée polyvalent Prieur de La Côte d'Or,0210003P,lycee,Auxonne,Dijon,Côte-d'Or,Public,102.1,47.19513685953593,5.387180592809431
Lycée général et technologique Stephen Liégeard,0210012Z,lycee,Brochon,Dijon,Côte-d'Or,Public,119.3,47.238025654093235,4.972769658939874
Lycée général et technologique Montchapet,0210017E,lycee,Dijon,Dijon,Côte-d'Or,Public,115.5,47.33538637776854,5.01750990006678
Collège Henry Berger,0210027R,college,Fontaine-Française,Dijon,Côte-d'Or,Public,108.2,47.52794930410364,5.3707094464383385
Collège Emile Lepitre,0210030U,college,Laignes,Dijon,Côte-d'Or,Public,93.4,47.84017197554787,4.364179638313428
Collège Arthur Rimbaud,0210033X,college,Mirebeau-sur-Bèze,Dijon,Côte-d'Or,Public,116.5,47.400162911322795,5.311689517063643
Collège Pasteur,0210034Y,college,Montbard,Dijon,Côte-d'Or,Public,94.2,47.634487367763604,4.3413037407015365
Collège Jacques Mercusot,0210051S,college,Sombernon,Dijon,Côte-d'Or,Public,120.2,47.30897561074223,4.707880559308569
Collège Roland Dorgeles,0210057Y,college,Longvic,Dijon,Côte-d'Or,Public,106.4,47.29474198644473,5.059491301750712
Collège privé Saint Joseph - La Salle,0211070Z,college,Dijon,Dijon,Côte-d'Or,Privé,126.4,47.31531380620813,5.037970394364311
Collège privé Saint Michel,0211081L,college,Dijon,Dijon,Côte-d'Or,Privé,129.1,47.31985399324063,5.0466898196286705
Collège privé Saint-Joseph La Salle,0211088U,college,Semur-en-Auxois,Dijon,Côte-d'Or,Privé,114.3,47.49077160407295,4.334540185859545
Collège La Champagne,0211140A,college,Brochon,Dijon,Côte-d'Or,Public,116.6,47.2320594363496,4.984749944342856
Collège Les Lentillères,0211150L,college,Dijon,Dijon,Côte-d'Or,Public,92.8,47.3044928812103,5.053150290617256
Lycée agricole privé de Saulieu,0211504W,lycee,Saulieu,Dijon,Côte-d'Or,Privé,,47.27733199610273,4.231529540578807
Collège Christiane Perceret,0211527W,college,Semur-en-Auxois,Dijon,Côte-d'Or,Public,100.1,47.49270980750196,4.335179628038798
Collège privé du Saint Coeur,0211626D,college,Beaune,Dijon,Côte-d'Or,Privé,125.7,47.02793047212533,4.83962046115028
Lycée polyvalent Marey,0212045J,lycee,Beaune,Dijon,Côte-d'Or,Public,106.9,47.02991281909782,4.850879519017569
Collège André Malraux,0212119P,college,Dijon,Dijon,Côte-d'Or,Public,123.2,47.35199206739911,5.036390141380151
Collège L'Etoile,0212291B,college,Dijon,Dijon,Côte-d'Or,Privé,,47.34321796972699,5.040564400429214
Collège Victor Vasarely,0220008P,college,Le Mené,Rennes,Côtes-d'Armor,Public,84.1,48.297026707801464,-2.512399343445446
Collège Thalassa,0220015X,college,Erquy,Rennes,Côtes-d'Armor,Public,108.7,48.62926189547831,-2.463919465015615
Lycée professionnel Jules Verne - Lycée des métiers de l'industrie et du commerce,0220019B,lycee,Guingamp,Rennes,Côtes-d'Armor,Public,87.5,48.5539126793412,-3.1497397660070847
Lycée général et technologique Félix Le Dantec,0220023F,lycee,Lannion,Rennes,Côtes-d'Armor,Public,125.4,48.732064075535824,-3.4500497901101643
Collège François René de Chateaubriand,0220038X,college,Plancoët,Rennes,Côtes-d'Armor,Public,100.5,48.522806425432194,-2.239819840545962
Collège La Gautrais,0220046F,college,Plouasne,Rennes,Côtes-d'Armor,Public,98.4,48.30407128043347,-2.0105705445890028
Collège Jean Jaurès,0220061X,college,Saint-Nicolas-du-Pélem,Rennes,Côtes-d'Armor,Public,86.6,48.3104509828557,-3.1635305506255493
Collège privé Notre Dame,0220098M,college,Guingamp,Rennes,Côtes-d'Armor,Privé,113.2,48.565012505005306,-3.153589709065814
Collège privé Saint Joseph - Bossuet,0220104U,college,Lannion,Rennes,Côtes-d'Armor,Privé,116.9,48.72874868839299,-3.4561094497874234
Collège privé Sainte Anne-Saint Joseph,0220158C,college,Pléneuf-Val-André,Rennes,Côtes-d'Armor,Privé,117.3,48.58826171122538,-2.538120271116755
Collège privé Saint Joseph,0220162G,college,Plouguenast-Langast,Rennes,Côtes-d'Armor,Privé,99.3,48.28051839808128,-2.7047203671986684
Collège privé Sainte Marie,0220172T,college,Saint-Brieuc,Rennes,Côtes-d'Armor,Privé,109.3,48.51120172906495,-2.784019589193251
Lycée professionnel Rosa Parks - Lycée des métiers des services à la personne et de la sécurité,0220186H,lycee,Rostrenen,Rennes,Côtes-d'Armor,Public,93.4,48.23397135018995,-3.308779800622135
Collège Jean Monnet,0221127F,college,Broons,Rennes,Côtes-d'Armor,Public,96.2,48.324296822002715,-2.265529341435858
Collège Simone Veil,0221537B,college,Lamballe-Armor,Rennes,Côtes-d'Armor,Public,99.6,48.476841760663596,-2.5097402914422124
Collège du Penker,0221541F,college,Plestin-les-Grèves,Rennes,Côtes-d'Armor,Public,109.3,48.6517896552191,-3.631140454088707
Lycée polyvalent Kerraoul,0221571N,lycee,Paimpol,Rennes,Côtes-d'Armor,Public,106.9,48.78105692591972,-3.0582401299432918
Lycée général et technologique prive Saint Joseph,0221589H,lycee,Loudéac,Rennes,Côtes-d'Armor,Privé,103.8,48.17426627870731,-2.7501905338796524
Lycée professionnel maritime Pierre Loti,0221624W,lycee,Paimpol,Rennes,Côtes-d'Armor,Public,,48.784198748753695,-3.0477006091604877
Collège privé Saint Charles,0221750H,college,Saint-Brieuc,Rennes,Côtes-d'Armor,Privé,129,48.50976693918002,-2.7688797030688788
Collège privé Saint Pierre,0221751J,college,Saint-Brieuc,Rennes,Côtes-d'Armor,Privé,121,48.51289766167512,-2.766729345995942
Collège Marie-José Chombart de Lauwe,0221991V,college,Paimpol,Rennes,Côtes-d'Armor,Public,101.3,48.78288838598563,-3.0562801392373546
Collège Saint-Yves - La Salle,0221999D,college,Saint-Brieuc,Rennes,Côtes-d'Armor,Privé,104.1,48.51717440474564,-2.7441104072028204
Lycée général et technologique Eugène Jamot,0230002C,lycee,Aubusson,Limoges,Creuse,Public,109.6,45.95346662648151,2.166800445264207
Lycée professionnel Jean Jaurès,0230003D,lycee,Aubusson,Limoges,Creuse,Public,93.7,45.95239283741987,2.1742506233859387
Collège Françoise Dolto,0230011M,college,Châtelus-Malvaleix,Limoges,Creuse,Public,90,46.30127442551819,2.0240996318962665
Collège Jacques Grancher,0230017U,college,Felletin,Limoges,Creuse,Public,108.9,45.88408379312214,2.1727397140905005
"Lycée professionnel Louis Gaston Roussillat - Lycée des métiers de la sécurité, de l'électrotechnique, de la maintenance de véhicules et matériels",0230027E,lycee,Saint-Vaury,Limoges,Creuse,Public,88.8,46.2043179642378,1.755740584237162
Collège Louis Durand,0230028F,college,Saint-Vaury,Limoges,Creuse,Public,102.2,46.20603234380025,1.7543098575774452
Collège Raymond Loewy,0230032K,college,La Souterraine,Limoges,Creuse,Public,104.2,46.24023188876845,1.4850584475632838
Collège Martin Nadaud,0230487E,college,Guéret,Limoges,Creuse,Public,97.6,46.17997747188956,1.8738886126512013
Collège Jules Marouzeau,0230488F,college,Guéret,Limoges,Creuse,Public,111.1,46.16636908709011,1.869829712756203
Collège Eugène Jamot,0230506A,college,Aubusson,Limoges,Creuse,Public,103.2,45.95335292025442,2.1661566229823817
Collège Léo Testut,0240001W,college,Beaumontois en Périgord,Bordeaux,Dordogne,Public,100,44.76421694558257,0.7667450657386735
Lycée professionnel Hélène Duc - Lycée des métiers de l'industrie Sud Périgord Hélène Duc,0240006B,lycee,Bergerac,Bordeaux,Dordogne,Public,87.2,44.85427894275058,0.49442362382056304
Collège Alienor d'Aquitaine,0240010F,college,Brantôme en Périgord,Bordeaux,Dordogne,Public,104.3,45.35883928916018,0.6539421902053862
Collège Plaisance,0240015L,college,Lanouaille,Bordeaux,Dordogne,Public,97.3,45.3901506222097,1.1363174516423646
Collège Michel de Montaigne,0240030C,college,Périgueux,Bordeaux,Dordogne,Public,93.6,45.182049379844116,0.7264549692861544
Collège Jules Ferry,0240037K,college,Terrasson-Lavilledieu,Bordeaux,Dordogne,Public,94,45.130978379203704,1.2990041723447758
Lycée professionnel Porte d'Aquitaine,0240039M,lycee,Thiviers,Bordeaux,Dordogne,Public,94.1,45.425315210472384,0.9263708703680864
Collège Henri Bretin,0240044T,college,Neuvic,Bordeaux,Dordogne,Public,97.8,45.09683283094656,0.4679825884364834
Collège Max Bramerie,0240053C,college,La Force,Bordeaux,Dordogne,Public,94,44.870514559898496,0.3736859148928055
Collège Suzanne Lacore,0240066S,college,Thenon,Bordeaux,Dordogne,Public,99.4,45.14185561384094,1.0598061934036953
Collège privé Sainte Marthe,0240077D,college,Périgueux,Bordeaux,Dordogne,Privé,117.4,45.18283456557546,0.7142664999770341
Lycée professionnel privé Sainte Marthe - Saint Front,0240094X,lycee,Bergerac,Bordeaux,Dordogne,Privé,96.4,44.86015028827046,0.4949822951773704
Collège Jean Rostand,0240117X,college,Montpon-Ménestérol,Bordeaux,Dordogne,Public,96.6,45.00086201838694,0.16165766250393665
Collège Les Chatenades,0240961P,college,Mussidan,Bordeaux,Dordogne,Public,97.6,45.03552379810673,0.3737043592028233
Lycée professionnel Léonard de Vinci - Lycée des métiers des énergies et des productions en transitions,0240984P,lycee,Périgueux,Bordeaux,Dordogne,Public,90.3,45.198751784122784,0.6766540627856404
Collège la Roche Beaulieu,0240997D,college,Annesse-et-Beaulieu,Bordeaux,Dordogne,Public,103.1,45.1942502493182,0.6198963023515004
Collège Arnaut Daniel,0241011U,college,Ribérac,Bordeaux,Dordogne,Public,96.6,45.24317926809058,0.3343128815594519
Lycée agricole privé Le Cluzeau de Sigoulès,0241033T,lycee,Sigoulès-et-Flaugeac,Bordeaux,Dordogne,Privé,,44.76512968529367,0.4182072588605241
Collège Bertran de Born,0241042C,college,Périgueux,Bordeaux,Dordogne,Public,116.9,45.17995328995045,0.7199656717477361
Collège privé Sainte Marthe - Saint Front,0241136E,college,Bergerac,Bordeaux,Dordogne,Privé,114.7,44.860237890462436,0.49507210923192496
Ecole EnVie,0241355T,college,Simeyrols,Bordeaux,Dordogne,Privé,,44.90676885387549,1.3389317054172716
Collège ArboRéSens,0241360Y,college,Journiac,Bordeaux,Dordogne,Privé,,44.96589404253883,0.8835639942231235
Collège Charles Masson,0250015F,college,Blamont,Besançon,Doubs,Public,102.1,47.38617523050102,6.848099836342845
Collège Guynemer,0250035C,college,Montbéliard,Besançon,Doubs,Public,87.9,47.513469731807824,6.796669389377004
Collège Félix Gaffiot,0250049T,college,Quingey,Besançon,Doubs,Public,110.3,47.106763797388986,5.882309460599603
Collège René Perrot,0250052W,college,Le Russey,Besançon,Doubs,Public,92.4,47.163727636674544,6.72555041645973
Lycée professionnel Jouffroy d'Abbans,0250063H,lycee,Baume-les-Dames,Besançon,Doubs,Public,81.8,47.34956760159781,6.350400573622814
LGT PR St Paul - Lycée des métiers de la conception de produits et de l'aménagement de l'habitat,0251021Z,lycee,Besançon,Besançon,Doubs,Privé,126.5,47.24534711534769,6.036720590873194
Collège privé Immaculée-Conception,0251058P,college,Le Russey,Besançon,Doubs,Privé,94.6,47.161677930746905,6.727430332451715
Lycée professionnel privé Saint Bénigne,0251112Y,lycee,Pontarlier,Besançon,Doubs,Privé,101.1,46.90155885695144,6.355929455079213
Collège Jean-Jacques Rousseau,0251130T,college,Voujeaucourt,Besançon,Doubs,Public,103,47.46882062497875,6.76183985111888
Collège Paul Langevin,0251211F,college,Etupes,Besançon,Doubs,Public,102.6,47.50302825702033,6.854469859787055
Collège Edgar Faure,0251372F,college,Valdahon,Besançon,Doubs,Public,102.5,47.15209798530859,6.341070610253597
Collège Mont Miroir,0251373G,college,Maîche,Besançon,Doubs,Public,93.8,47.24949365717478,6.81075970724552
Collège Entre Deux Velles,0251376K,college,Saône,Besançon,Doubs,Public,116.7,47.225912836100505,6.114149474574617
Lycée agricole privé Jeanne d'Arc de Pontarlier,0251481Z,lycee,Pontarlier,Besançon,Doubs,Privé,,46.903915970059806,6.357549683349078
Collège André Boulloche,0251556F,college,Bart,Besançon,Doubs,Public,109.3,47.49185004046221,6.761269916850131
Collège privé Saint Joseph,0251587P,college,Besançon,Besançon,Doubs,Privé,125,47.245620688398866,6.033739426836159
LP PR St Joseph - Lycée des métiers de la conception de produits et de l'aménagement de l'habitat,0251592V,lycee,Besançon,Besançon,Doubs,Privé,108.1,47.24589106141387,6.0346305266422275
Collège André Malraux,0251677M,college,Pontarlier,Besançon,Doubs,Public,99.9,46.89490782349362,6.365140141835257
COLLEGE SAINT ANSELME BESANCON,0252025R,college,Besançon,Besançon,Doubs,Privé,,47.246190862886664,6.012813681193626
LYCEE ALTERNATIF BESANCON,0252049S,lycee,Besançon,Besançon,Doubs,Privé,,,
Lycée général et technologique Augustin Fresnel,0270003G,lycee,Bernay,Normandie,Eure,Public,105.4,49.0849397534747,0.5928195002692618
Collège Aimé Charpentier,0270014U,college,Mesnils-sur-Iton,Normandie,Eure,Public,102.2,48.864977429582105,1.0692099473457959
Lycée général et technologique Aristide Briand,0270016W,lycee,Evreux,Normandie,Eure,Public,103.4,49.01670093304808,1.1562496091952008
Collège Georges d'Amboise,0270025F,college,Gaillon,Normandie,Eure,Public,92,49.16308115168932,1.3458395780702452
Lycée polyvalent Louise Michel,0270026G,lycee,Gisors,Normandie,Eure,Public,102,49.28598667224969,1.7799600835649738
Lycée polyvalent les Fontenelles,0270029K,lycee,Louviers,Normandie,Eure,Public,107,49.20927759687627,1.1563117042020414
Collège Jean-Claude Dauphin,0270033P,college,Nonancourt,Normandie,Eure,Public,98.4,48.76828585199814,1.2028705575840475
Collège des Sept Epis,0270041Y,college,Saint-André-de-l'Eure,Normandie,Eure,Public,95.7,48.90883048844205,1.2831133734438973
Collège Maurice de Vlaminck,0270043A,college,Verneuil d'Avre et d'Iton,Normandie,Eure,Public,92.8,48.73981762998627,0.9358195520079566
Lycée général privé Ecole des Roches,0271051W,lycee,Verneuil d'Avre et d'Iton,Normandie,Eure,Privé,143.5,48.74125303097715,0.8936096571751003
Lycée polyvalent privé Notre Dame - Saint François,0271070S,lycee,Evreux,Normandie,Eure,Privé,112,49.016343599958255,1.148869855847332
Lycée professionnel privé Sainte Agnès,0271073V,lycee,Vernon,Normandie,Eure,Privé,107.8,49.090909282217375,1.4801498958487287
Lycée professionnel privé Saint Ouen,0271081D,lycee,Pont-Audemer,Normandie,Eure,Privé,101.8,49.35170916582673,0.49593005503866655
Collège Georges Politzer,0271095U,college,Evreux,Normandie,Eure,Public,80.7,49.00612917964285,1.147329421444672
Collège Louis Anquetin,0271106F,college,Etrépagny,Normandie,Eure,Public,95.1,49.31115265474259,1.6142194519169886
Lycée général et technologique privé Jeanne d'Arc - Saint Anselme,0271282X,lycee,Bernay,Normandie,Eure,Privé,113,49.0949008364516,0.6047301835013287
Collège Jean de La Fontaine,0271317K,college,Grand Bourgtheroulde,Normandie,Eure,Public,107.8,49.302045424532295,0.8677571450400128
Collège Victor Hugo,0271321P,college,Gisors,Normandie,Eure,Public,104.2,49.282628938382054,1.770680489643185
Collège Georges Pompidou,0271322R,college,Pacy-sur-Eure,Normandie,Eure,Public,109.8,49.01965495893795,1.387620091409416
Collège Ariane,0271399Z,college,Vernon,Normandie,Eure,Public,95.5,49.098196959217894,1.4678806293053945
Lycée général et technologique Jacques Prévert,0271431J,lycee,Pont-Audemer,Normandie,Eure,Public,112.9,49.350552269520236,0.5221309459984927
Institution Notre-Dame Saint-François,0271449D,college,Evreux,Normandie,Eure,Privé,124.1,49.01605402681326,1.148639508236323
Collège privé Saint Ouen,0271450E,college,Pont-Audemer,Normandie,Eure,Privé,117.3,49.35170916582673,0.49593005503866655
Lycée général et technologique Marc Bloch,0271582Y,lycee,Val-de-Reuil,Normandie,Eure,Public,100.8,49.2682488269445,1.2026898590201793
Lycée polyvalent Jean Moulin,0271585B,lycee,Les Andelys,Normandie,Eure,Public,95.6,49.24939546460007,1.4340897747556332
Collège Lucie Aubrac,0271744Z,college,Bueil,Normandie,Eure,Public,110.4,48.939677781024706,1.436829610560941
Collège Geneviève De Gaulle-Anthonioz,0271885C,college,Le Neubourg,Normandie,Eure,Public,104.6,49.145755458581704,0.8960883996756958
Ecole de production des semeurs,0271889G,lycee,Mesnil-en-Ouche,Normandie,Eure,Privé,,49.01166186026478,0.7066852782967522
Collège Joachim du Bellay,0280002A,college,Authon-du-Perche,Orléans-Tours,Eure-et-Loir,Public,94.3,48.196318905933985,0.8890602365178351
Lycée polyvalent Edouard Branly - Lycée des métiers des sciences et de l'industrie,0280021W,lycee,Dreux,Orléans-Tours,Eure-et-Loir,Public,102.3,48.73089785965829,1.3783688238619873
Collège Jean Racine,0280033J,college,Maintenon,Orléans-Tours,Eure-et-Loir,Public,117.5,48.58928632623848,1.5861398284413057
Collège Jean Macé,0280034K,college,Mainvilliers,Orléans-Tours,Eure-et-Loir,Public,88.9,48.44813319315256,1.461900355972772
Collège privé saint-jacques de compostelle,0280664V,college,Mignières,Orléans-Tours,Eure-et-Loir,Privé,122.4,48.361877425099074,1.4268098891516237
Lycée général et technologique privé Notre Dame,0280665W,lycee,Chartres,Orléans-Tours,Eure-et-Loir,Privé,138.7,48.45041000419113,1.4940606334167357
Collège privé Sainte Cécile,0280679L,college,Châteaudun,Orléans-Tours,Eure-et-Loir,Privé,105.5,48.06997362568762,1.3315495802225061
Lycée professionnel privé Notre Dame,0280684S,lycee,Saint-Maurice-Saint-Germain,Orléans-Tours,Eure-et-Loir,Privé,88.3,48.49300529506262,1.0889897863202975
Lycée professionnel privé Notre Dame,0280691Z,lycee,Chartres,Orléans-Tours,Eure-et-Loir,Privé,,48.4511456741978,1.4930399609703275
Collège Marcel Proust,0280702L,college,Illiers-Combray,Orléans-Tours,Eure-et-Loir,Public,97.7,48.3018940001692,1.2467195351217577
Collège Hélène Boucher,0280755U,college,Chartres,Orléans-Tours,Eure-et-Loir,Public,113.8,48.44295408781572,1.4845005846376718
Lycée professionnel Elsa Triolet,0280864M,lycee,Lucé,Orléans-Tours,Eure-et-Loir,Public,89.7,48.44041113578513,1.4636397241383803
Collège Albert Sidoisne,0280866P,college,Bonneval,Orléans-Tours,Eure-et-Loir,Public,96.8,48.18456270289576,1.3899496088266037
Collège Emile Zola,0280957N,college,Châteaudun,Orléans-Tours,Eure-et-Loir,Public,104.4,48.07225810806986,1.3332099899355332
Collège privé notre dame,0280993C,college,Chartres,Orléans-Tours,Eure-et-Loir,Privé,139.8,48.4511456741978,1.4930399609703275
Collège Mozart,0281038B,college,Anet,Orléans-Tours,Eure-et-Loir,Public,113.7,48.85523888644485,1.4468494139929
Lycée général et technologique Fulbert,0281047L,lycee,Chartres,Orléans-Tours,Eure-et-Loir,Public,107.7,48.44571828486869,1.5081499052757152
Collège Charles de Gaulle,0281095N,college,Bû,Orléans-Tours,Eure-et-Loir,Public,117.2,48.79333144507326,1.4920302410220296
Lycée agricole privé Notre-Dame de La Loupe,0281101V,lycee,La Loupe,Orléans-Tours,Eure-et-Loir,Privé,,48.49324786998856,1.0891894442509686
Ecole secondaire privée des roseaux,0281199B,college,Bérou-la-Mulotière,Orléans-Tours,Eure-et-Loir,Privé,,48.7516940874425,1.053123627632014
Lycée général de L'Iroise,0290009C,lycee,Brest,Rennes,Finistère,Public,126.7,48.40117266212533,-4.4639516314435195
Lycée polyvalent Vauban,0290012F,lycee,Brest,Rennes,Finistère,Public,109.5,48.406924920995195,-4.481350147110808
Lycée polyvalent Paul Sérusier,0290022S,lycee,Carhaix-Plouguer,Rennes,Finistère,Public,96.8,48.27907860884908,-3.5516305894704203
Collège Alain,0290032C,college,Crozon,Rennes,Finistère,Public,103.8,48.25153491510787,-4.491069439802843
Collège Coat-Mez,0290033D,college,Daoulas,Rennes,Finistère,Public,119.1,48.369201997730364,-4.278089547391721
Collège Roz Avel,0290039K,college,Guerlesquin,Rennes,Finistère,Public,106.3,48.51690715786518,-3.5910531759025828
Collège Pays des Abers,0290048V,college,Lannilis,Rennes,Finistère,Public,108.1,48.57358176094791,-4.513889724694035
Lycée général et technologique René Laennec,0290062K,lycee,Pont-l'Abbé,Rennes,Finistère,Public,116,47.860529680280266,-4.233390571279689
Lycée technologique Jean Chaptal,0290070U,lycee,Quimper,Rennes,Finistère,Public,101,47.99128604588474,-4.119080627235763
Lycée professionnel Roz Glas,0290078C,lycee,Quimperlé,Rennes,Finistère,Public,92.5,47.88565418190689,-3.554949478857595
Collège François Collobert,0290093U,college,Pont-de-Buis-lès-Quimerch,Rennes,Finistère,Public,107.1,48.255101826443045,-4.093960010950936
Lycée général et technologique Cornouaille,0290098Z,lycee,Quimper,Rennes,Finistère,Public,114.1,47.988708028949134,-4.1242616116539885
Collège Les Sables Blancs,0290132L,college,Concarneau,Rennes,Finistère,Public,103,47.87800809012644,-3.926010473619754
Collège Joséphine-Baker,0290149E,college,Brest,Rennes,Finistère,Public,74.6,48.40363080610729,-4.510359525683293
Collège Kerzourat,0290153J,college,Landivisiau,Rennes,Finistère,Public,94.9,48.51478431884642,-4.06495938143426
Lycée général et technologique privé Sainte Thérèse,0290171D,lycee,Quimper,Rennes,Finistère,Privé,129.5,47.98103144766769,-4.095710556596959
Lycée général et technologique privé Notre-Dame du Kreisker,0290177K,lycee,Saint-Pol-de-Léon,Rennes,Finistère,Privé,119.2,48.68149600920377,-3.9883596164752952
Lycée général privé Saint Esprit,0290198H,lycee,Landivisiau,Rennes,Finistère,Privé,108.7,48.51324329450774,-4.0802200709131125
Lycée polyvalent privé Notre-Dame de Kerbertrand,0290206S,lycee,Quimperlé,Rennes,Finistère,Privé,121.5,47.87174082782485,-3.5611641959309783
Collège privé Javouhey,0290236Z,college,Brest,Rennes,Finistère,Privé,114.7,48.38330796839498,-4.501369328524998
Collège privé Saint Vincent,0290243G,college,Brest,Rennes,Finistère,Privé,117.4,48.37845466884566,-4.5369096555103985
Collège privé Saint Joseph,0290293L,college,Plouescat,Rennes,Finistère,Privé,103.8,48.65558991219206,-4.1721596959605245
Collège Jacques Prévert,0290333E,college,Saint-Pol-de-Léon,Rennes,Finistère,Public,99.2,48.68342623289798,-3.9929903412562076
Lycée général privé Estran Charles de Foucauld,0290336H,lycee,Brest,Rennes,Finistère,Privé,131.9,48.403306660413,-4.4591198803784415
"Lycée d'enseignement général, technologique et professionnel agricole de Châteaulin",0290341N,lycee,Châteaulin,Rennes,Finistère,Public,,48.19198421837894,-4.087239832198621
Collège du Château,0291085X,college,Morlaix,Rennes,Finistère,Public,105.3,48.57399935956568,-3.8260701124087877
Collège La Fontaine Margot-Kéranroux,0291089B,college,Brest,Rennes,Finistère,Public,85.3,48.3837528328042,-4.540690061781384
Collège Beg-Avel,0291102R,college,Carhaix-Plouguer,Rennes,Finistère,Public,94,48.28088132453598,-3.5506594570516707
Lycée agricole privé Le Nivot de Lopérec,0291208F,lycee,Lopérec,Rennes,Finistère,Privé,,48.31337512595565,-4.0083106424602715
Lycée agricole privé Sainte-Marie de Plouigneau,0291575E,lycee,Plouigneau,Rennes,Finistère,Privé,,48.56371702224307,-3.6982798698498995
Collège de L'Harteloire,0291594A,college,Brest,Rennes,Finistère,Public,122.8,48.393573463452206,-4.489969694885716
Collège Paul Langevin,0291631R,college,Guilvinec,Rennes,Finistère,Public,103.1,47.80149422152053,-4.283520868179147
Collège privé Saint Charles,0291655S,college,Guipavas,Rennes,Finistère,Privé,119,48.43449927864662,-4.396590040194968
Collège Victoire Daubié,0291753Y,college,Plouzané,Rennes,Finistère,Public,124.4,48.38178562062985,-4.599450152148801
Centre d'instruction naval Ecole de Maistrance,0291758D,lycee,Brest,Rennes,Finistère,Public,,48.39042762250076,-4.4860602260253994
Collège Les Quatre Moulins,0291824A,college,Brest,Rennes,Finistère,Public,100.4,48.38578890118502,-4.515550158798802
Collège privé Sainte Thérèse,0291878J,college,Quimper,Rennes,Finistère,Privé,125.1,47.9913580000509,-4.0904996643369005
Collège privé Diwan Penn ar Bed,0292055B,college,Le Relecq-Kerhuon,Rennes,Finistère,Privé,132.4,48.398370710306494,-4.4114295156219985
Collège Irène Joliot-Curie,0300001N,college,Aigues-Mortes,Montpellier,Gard,Public,99,43.567650065372746,4.20215017097524
Collège Romain Rolland,0300025P,college,Nîmes,Montpellier,Gard,Public,61.4,43.84465294317107,4.390210182026013
Lycée général et technologique Dhuoda,0300026R,lycee,Nîmes,Montpellier,Gard,Public,103.6,43.827597769854115,4.355989886656224
Collège de Coutach,0300032X,college,Quissac,Montpellier,Gard,Public,110.7,43.91345260842568,3.994619945866902
Collège de La Galaberte,0300039E,college,Saint-Hippolyte-du-Fort,Montpellier,Gard,Public,104,43.963139683575946,3.858599825941153
Collège Capouchiné,0300062E,college,Nîmes,Montpellier,Gard,Public,80,43.8224816363969,4.3569599691475265
Collège privé Notre-Dame,0300098U,college,Pont-Saint-Esprit,Montpellier,Gard,Privé,112,44.25936227925928,4.645400038147636
Collège privé Maintenon,0300101X,college,Sommières,Montpellier,Gard,Privé,133.2,43.78496622795776,4.089730405346151
"Lycée professionnel privé Sainte Marie, lycée des métiers de la santé et des procédés de la chimie et de l'eau",0300106C,lycee,Bagnols-sur-Cèze,Montpellier,Gard,Privé,96.3,44.161341153653176,4.62367961983436
Lycée professionnel privé Pasteur,0300109F,lycee,La Grand-Combe,Montpellier,Gard,Privé,96.1,44.210597365173584,4.028149887242497
"Lycée privé de la CCI Gard, lycée des métiers de la vente et des services aux entreprises",0300112J,lycee,Nîmes,Montpellier,Gard,Privé,99.1,43.83281559491216,4.368860248460036
Lycée polyvalent Albert Einstein,0300950V,lycee,Bagnols-sur-Cèze,Montpellier,Gard,Public,102.7,44.161732020049385,4.6117063195147985
Collège privé Samuel Vincent,0300996V,college,Nîmes,Montpellier,Gard,Privé,104.2,43.828856335253725,4.359939672779812
Collège Jean Moulin,0301013N,college,Alès,Montpellier,Gard,Public,74.1,44.13184496996523,4.077629973174368
Collège Denis Diderot,0301014P,college,Alès,Montpellier,Gard,Public,85.9,44.132806298096284,4.078730529941349
"Lycée professionnel Jules Raimu, Lycée des métiers de la maintenance, du numérique et de la conduite routière",0301270T,lycee,Nîmes,Montpellier,Gard,Public,83,43.819446325065925,4.3302597476143685
Collège Lou Redounet,0301283G,college,Uzès,Montpellier,Gard,Public,108.4,44.00891132145895,4.41480236211176
Collège Henri Pitot,0301325C,college,Aramon,Montpellier,Gard,Public,102.4,43.88822105971178,4.679470101812487
Ecole secondaire professionnelle privée Espace Bourgier,0301527X,lycee,Nîmes,Montpellier,Gard,Privé,,43.82827427008537,4.35926940108269
Collège Le Vignet,0301671D,college,Calvisson,Montpellier,Gard,Public,119.4,43.783164889414216,4.201259835785967
Collège Jean-Louis Trintignant,0301721H,college,Uzès,Montpellier,Gard,Public,109.1,44.02773038850504,4.414961597594372
Lycée général et technologique Jean Vilar,0301722J,lycee,Villeneuve-lès-Avignon,Montpellier,Gard,Public,123,43.980979359209876,4.79051993015492
Collège,0301747L,college,Lédignan,Montpellier,Gard,Public,101.6,43.98400865216967,4.107060374119492
Ecole du second degré général et technologique privée Scholae,0301800U,lycee,Saint-Hippolyte-du-Fort,Montpellier,Gard,Privé,,43.980787433014754,3.851120212060205
"Ecole second degré général privée, Institut Jean Paul II",0301805Z,lycee,Uzès,Montpellier,Gard,Privé,,44.01121600517666,4.4067500892698765
OneSchool Global Alès Campus (Lycée professionnel),0301806A,lycee,Vézénobres,Montpellier,Gard,Privé,,44.06806329392198,4.1158894929791865
Ecole privée Team Etud' (Ecole secondaire privé),0301846U,college,Anduze,Montpellier,Gard,Privé,,44.05971177604111,3.9717405835534096
Lycée polyvalent Lucie Aubrac,0301862L,lycee,Sommières,Montpellier,Gard,Public,120.3,43.7774617011605,4.067523627131194
Collège Léon Cazeneuve,0310019C,college,L'Isle-en-Dodon,Toulouse,Haute-Garonne,Public,94.6,43.38001291543968,0.8325911625218061
Collège Bertrand Laralde,0310023G,college,Montréjeau,Toulouse,Haute-Garonne,Public,97.1,43.08961919448404,0.5680401353791621
Collège Robert Roger,0310029N,college,Rieumes,Toulouse,Haute-Garonne,Public,115.4,43.41048682221641,1.1149596346243447
Collège des 3 Vallées,0310035V,college,Salies-du-Salat,Toulouse,Haute-Garonne,Public,109.7,43.10483401591729,0.9560800247163707
Lycée polyvalent Raymond Naves,0310040A,lycee,Toulouse,Toulouse,Haute-Garonne,Public,108.8,43.63826281869856,1.4627798494426274
Lycée polyvalent Déodat de Séverac - Lycée des métiers de l'ingénierie et de l'industrie du futur,0310044E,lycee,Toulouse,Toulouse,Haute-Garonne,Public,105.9,43.58914042072771,1.4264598048930772
Lycée professionnel Roland Garros - Lycée des métiers de la maintenance mécanique et de la productique,0310052N,lycee,Toulouse,Toulouse,Haute-Garonne,Public,86.5,43.629556204098996,1.4286998177797523
Lycée professionnel Renée Bonnet,0310054R,lycee,Toulouse,Toulouse,Haute-Garonne,Public,94.4,43.55588558657076,1.4681194455528364
Collège Bellevue,0310092G,college,Toulouse,Toulouse,Haute-Garonne,Public,119.6,43.55649269524502,1.457799474357203
Lycée polyvalent Haut-Barr - Lycée des métiers,0672534R,lycee,Saverne,Strasbourg,Bas-Rhin,Public,116.5,48.73063700160994,7.351840449998769
Lycée général et technologique Marc Bloch,0672604S,lycee,Bischheim,Strasbourg,Bas-Rhin,Public,102,48.61674014965225,7.766053867630057
Collège Rembrandt Bugatti,0672606U,college,Molsheim,Strasbourg,Bas-Rhin,Public,112.6,48.5310940601475,7.491565344904882
Lycée polyvalent Louis Marchal,0672615D,lycee,Molsheim,Strasbourg,Bas-Rhin,Public,107.4,48.536940977014304,7.500843676938967
Ecole secondaire privée Beth Hanna (Collège privé),0672657Z,college,Strasbourg,Strasbourg,Bas-Rhin,Privé,,48.59170449087781,7.747758310243283
Lycée Général Technologique Yunus Emre,0673089U,lycee,Strasbourg,Strasbourg,Bas-Rhin,Privé,,48.588696245571825,7.711612659424537
Collège privé Victor Hugo,0673223P,college,Brumath,Strasbourg,Bas-Rhin,Privé,,48.72864957060912,7.710301975187581
"Lycée d'enseignement général, technologique et professionnel agricole de Rouffach",0680003J,lycee,Rouffach,Strasbourg,Haut-Rhin,Public,,47.95521662600422,7.300763236712241
Lycée général et technologique Alfred Kastler,0680015X,lycee,Guebwiller,Strasbourg,Haut-Rhin,Public,112.7,47.90688203540366,7.203692775630041
Collège Albert Schweitzer,0680022E,college,Kaysersberg Vignoble,Strasbourg,Haut-Rhin,Public,113.5,48.13836676370869,7.261400057660536
Collège Théodore Monod,0680056S,college,Ottmarsheim,Strasbourg,Haut-Rhin,Public,108.4,47.787794904002084,7.510136322281104
Lycée général et technologique Ribeaupierre,0680060W,lycee,Ribeauvillé,Strasbourg,Haut-Rhin,Public,117.6,48.19756451167921,7.3156400702709785
Collège Molière,0680084X,college,Colmar,Strasbourg,Haut-Rhin,Public,69.5,48.07362069680313,7.32905319590329
Collège Kennedy,0680105V,college,Mulhouse,Strasbourg,Haut-Rhin,Public,74.8,47.74934637524457,7.333750586462343
Collège Ecole Privée des Missions,0680131Y,college,Blotzheim,Strasbourg,Haut-Rhin,Privé,130.8,47.5987234031015,7.499429149657804
Collège privé Institut de L'Assomption,0680133A,college,Colmar,Strasbourg,Haut-Rhin,Privé,126.7,48.06689899062006,7.352227875582932
Collège Emile Zola,0681369U,college,Kingersheim,Strasbourg,Haut-Rhin,Public,85.8,47.786475132504606,7.328404618786487
Collège Jean Georges Reber,0681394W,college,Sainte-Marie-aux-Mines,Strasbourg,Haut-Rhin,Public,87.2,48.236070056983905,7.1668096424783885
Collège privé Don Bosco,0681660K,college,Landser,Strasbourg,Haut-Rhin,Privé,131.1,47.684357027599205,7.386805460625546
Lycée général et technologique Lambert,0681761V,lycee,Mulhouse,Strasbourg,Haut-Rhin,Public,102.8,47.75447687952525,7.330082336680893
Lycée technologique privé Saint Joseph de Cluny,0681793E,lycee,Mulhouse,Strasbourg,Haut-Rhin,Privé,102.1,47.75093413608674,7.347100206603439
"Lycée polyvalent E. Bugatti - Lycée des métiers de l'automobile, du transport et de la logistique",0681809X,lycee,Illzach,Strasbourg,Haut-Rhin,Public,79.9,47.76222891957005,7.367715834634542
Lycée polyvalent Lazare de Schwendi - Lycée des métiers,0681817F,lycee,Ingersheim,Strasbourg,Haut-Rhin,Public,86.5,48.09070520351665,7.2965480166652235
Lycée polyvalent Martin Schongauer,0681882B,lycee,Colmar,Strasbourg,Haut-Rhin,Public,83.5,48.069509044965976,7.351275574920198
Lycée général et technologique privé Institution Don Bosco,0681917P,lycee,Wittenheim,Strasbourg,Haut-Rhin,Privé,106.5,47.81280194873048,7.34066690588559
Collège privé Ner Lemosché,0682062X,college,Saint-Louis,Strasbourg,Haut-Rhin,Privé,,47.590710130081796,7.561153602176567
Lycée d'enseignement général privé Institution Champagnat,0682072H,lycee,Issenheim,Strasbourg,Haut-Rhin,Privé,123.3,47.903087367014,7.254359209044442
Collège Asa Paulini,0690002C,college,Anse,Lyon,Rhône,Public,122,45.93879178584631,4.712986205748602
Lycée professionnel Barthélémy Thimonnier,0690003D,lycee,L'Arbresle,Lyon,Rhône,Public,94,45.834324228318415,4.613050900510914
Collège du Val d'Ardières,0690005F,college,Beaujeu,Lyon,Rhône,Public,102.6,46.15134273848258,4.592804744637628
Lycée professionnel Danielle Casanova - Lycée des métiers du cuir et des services,0690018V,lycee,Givors,Lyon,Rhône,Public,81.9,45.59404718699999,4.766439826799749
Collège de la Haute Azergues,0690022Z,college,Lamure-sur-Azergues,Lyon,Rhône,Public,107.9,46.05505830753216,4.4931049353547525
Lycée général et technologique Auguste et Louis Lumière,0690035N,lycee,Lyon 8e  Arrondissement,Lyon,Rhône,Public,93.9,45.736111824015936,4.862068356620208
Lycée professionnel Jacques de Flesselles - Lycée des métiers du génie électrique et de la bureautique,0690043X,lycee,Lyon 1er Arrondissement,Lyon,Rhône,Public,83.6,45.77110128730322,4.826625580277794
Lycée professionnel Jean Lurçat,0690045Z,lycee,Lyon 8e  Arrondissement,Lyon,Rhône,Public,78.3,45.73232685425446,4.8629994310375295
Collège Marcel Pagnol,0690076H,college,Oullins-Pierre-Bénite,Lyon,Rhône,Public,85.2,45.69940404147715,4.818619042548059
Collège Jules Michelet,0690094C,college,Vénissieux,Lyon,Rhône,Public,72.1,45.688464746000854,4.872875990843281
Lycée polyvalent Claude Bernard,0690097F,lycee,Villefranche-sur-Saône,Lyon,Rhône,Public,100.3,45.98934570178001,4.712028447764924
Lycée polyvalent Frédéric Fays - Lycée des métiers des techniques de conception et de production,0690103M,lycee,Villeurbanne,Lyon,Rhône,Public,88,45.761936065542784,4.904947114549766
Lycée professionnel Emile Béjuit - Lycée des métiers de l'automobile et du transport routier,0690105P,lycee,Bron,Lyon,Rhône,Public,81.8,45.75136218189384,4.905798563027197
Lycée professionnel Alfred de Musset - Lycée des métiers de la logistique et du transport - Lycée des métiers de la maintenance industrielle,0690107S,lycee,Villeurbanne,Lyon,Rhône,Public,77.7,45.756878439576354,4.9210855575441945
Collège Raoul Dufy,0690131T,college,Lyon 3e  Arrondissement,Lyon,Rhône,Public,111.7,45.75881533570775,4.847529171105776
Lycée d'enseignement général et technologique agricole de Lyon - Dardilly,0690250X,lycee,Dardilly,Lyon,Rhône,Public,,45.81422431782751,4.770043077927613
Lycée professionnel agricole de Belleville,0690275Z,lycee,Belleville-en-Beaujolais,Lyon,Rhône,Public,,46.116284158028634,4.70522260519587
Collège Les Iris,0690280E,college,Villeurbanne,Lyon,Rhône,Public,83,45.769270202520346,4.8968622457316275
"Lycée professionnel Joseph-Marie Jacquard - Lycée des métiers des services à la personne, services à l'entreprise, métiers de la mode",0690281F,lycee,Oullins-Pierre-Bénite,Lyon,Rhône,Public,84,45.71189515465239,4.810123605009669
Collège privé Sainte Jeanne d'Arc,0631407M,college,Thiers,Clermont-Ferrand,Puy-de-Dôme,Privé,103.3,45.85799961520794,3.546499397982371
Lycée professionnel privé Les Cordeliers - Lycée des métiers de la santé et du social,0631408N,lycee,Clermont-Ferrand,Clermont-Ferrand,Puy-de-Dôme,Privé,106.6,45.79440108176439,3.113080147965042
Collège International Jeanne d'Arc,0631410R,college,Clermont-Ferrand,Clermont-Ferrand,Puy-de-Dôme,Public,105.6,45.77743997678379,3.094910386297031
Lycée agricole privé de Vernet-la-varenne,0631560D,lycee,Le Vernet-Chaméane,Clermont-Ferrand,Puy-de-Dôme,Privé,,45.47536561886124,3.450951460037106
Collège privé Fénelon Saint-Joseph - Site Poincaré,0631731P,college,Clermont-Ferrand,Clermont-Ferrand,Puy-de-Dôme,Privé,135.9,45.77129443520288,3.09015039796733
Collège privé Saint Pierre,0631733S,college,Courpière,Clermont-Ferrand,Puy-de-Dôme,Privé,109.7,45.75282195900585,3.52866998102887
Collège privé Sévigné Saint Louis,0631734T,college,Issoire,Clermont-Ferrand,Puy-de-Dôme,Privé,119.4,45.54061049080743,3.2482095610214703
Lycée général et technologique René Descartes,0631861F,lycee,Cournon-d'Auvergne,Clermont-Ferrand,Puy-de-Dôme,Public,121.1,45.74467799698602,3.2117593658249417
"Lycée Innovant Ambition Numérique, Lycée Virlogeux Riom",0632040A,lycee,Riom,Clermont-Ferrand,Puy-de-Dôme,Public,,45.88680059613174,3.1166299505514474
"Hall 32, Clermont-Ferrand",0632052N,lycee,Clermont-Ferrand,Clermont-Ferrand,Puy-de-Dôme,Privé,,45.78987134163692,3.104970566199572
Lycée polyvalent Cantau - Lycée des métiers du bâtiment,0640001D,lycee,Anglet,Bordeaux,Pyrénées-Atlantiques,Public,114.6,43.47581153106424,-1.5111723465138018
Collège d'Arzacq Arraziguet,0640008L,college,Arzacq-Arraziguet,Bordeaux,Pyrénées-Atlantiques,Public,107.2,43.53470699756713,-0.40659717915786003
Collège du Pays de Bidache,0640019Y,college,Bidache,Bordeaux,Pyrénées-Atlantiques,Public,113.5,43.484307455104464,-1.141386271353564
Collège Joseph Peyre,0640025E,college,Garlin,Bordeaux,Pyrénées-Atlantiques,Public,99.8,43.56281231281604,-0.2706159695855683
Lycée professionnel AIZPURDI,0640028H,lycee,Hendaye,Bordeaux,Pyrénées-Atlantiques,Public,88,43.35687011417718,-1.774299266611138
Lycée professionnel Jean-Pierre Champo - Lycée des métiers de la maintenance,0640040W,lycee,Mauléon-Licharre,Bordeaux,Pyrénées-Atlantiques,Public,94.9,43.22410763446807,-0.8775867838102834
Collège des Remparts,0640045B,college,Navarrenx,Bordeaux,Pyrénées-Atlantiques,Public,101.6,43.32277650921941,-0.75498849604277
Lycée professionnel du 4 septembre 1870 - Lycée des métiers du commerce et des services,0640050G,lycee,Oloron-Sainte-Marie,Bordeaux,Pyrénées-Atlantiques,Public,85.4,43.197369569258136,-0.6091844258854477
Collège Jean Pujo,0640064X,college,Saint-Etienne-de-Baïgorry,Bordeaux,Pyrénées-Atlantiques,Public,103.6,43.182178404728255,-1.3350275916281251
Collège Dr. Pierre Jaureguy,0640074H,college,Tardets-Sorholus,Bordeaux,Pyrénées-Atlantiques,Public,103.8,43.11565379872042,-0.860503678865446
Lycée professionnel Pierre et Marie Curie,0640079N,lycee,Mourenx,Bordeaux,Pyrénées-Atlantiques,Public,95.7,43.36873643063352,-0.6249904033891093
Lycée général privé le beau rameau,0640122K,lycee,Igon,Bordeaux,Pyrénées-Atlantiques,Privé,114.7,43.15821228794494,-0.23123138128221427
Lycée général et technologique privé Saint Joseph,0640137B,lycee,Ustaritz,Bordeaux,Pyrénées-Atlantiques,Privé,115.9,43.401972936430504,-1.4581126952981336
Collège privé Saint Joseph,0640141F,college,Bayonne,Bordeaux,Pyrénées-Atlantiques,Privé,99.1,43.49352664883741,-1.4652044375813178
Collège privé Notre-Dame,0640144J,college,Bayonne,Bordeaux,Pyrénées-Atlantiques,Privé,110.7,43.48997654834556,-1.4779677008142635
Collège Daniel Argote-Bergereau,0640214K,college,Orthez,Bordeaux,Pyrénées-Atlantiques,Public,101.4,43.47993200174246,-0.7663161544224655
Lycée professionnel agricole d'Oloron Sainte-Marie,0640254D,lycee,Oloron-Sainte-Marie,Bordeaux,Pyrénées-Atlantiques,Public,,43.169843792918115,-0.5927626820249434
Lycée général et technologique privé Stella Maris,0641441U,lycee,Anglet,Bordeaux,Pyrénées-Atlantiques,Privé,113.1,43.50186887337713,-1.524028749787056
Lycée agricole privé de Baudreix - site de Nay,0641534V,lycee,Baudreix,Bordeaux,Pyrénées-Atlantiques,Privé,,43.2050860676368,-0.2575639312224719
Lycée agricole privé Armand David de Hasparren,0641535W,lycee,Hasparren,Bordeaux,Pyrénées-Atlantiques,Privé,,43.3811703856896,-1.3049882650575182
Collège Gaston Febus,0641560Y,college,Orthez,Bordeaux,Pyrénées-Atlantiques,Public,106.8,43.491399949882265,-0.7665224493414241
Collège privé Largenté,0641652Y,college,Bayonne,Bordeaux,Pyrénées-Atlantiques,Privé,125.9,43.47746833916759,-1.4841636091769148
Collège privé le Beau Rameau,0641655B,college,Lestelle-Bétharram,Bordeaux,Pyrénées-Atlantiques,Privé,103.5,43.122808947803804,-0.20673899280547559
Collège privé Jeanne d'Arc,0641659F,college,Orthez,Bordeaux,Pyrénées-Atlantiques,Privé,120,43.49045219282612,-0.7716043648750425
Collège privé Saint Thomas d'Aquin,0641661H,college,Saint-Jean-de-Luz,Bordeaux,Pyrénées-Atlantiques,Privé,131,43.388549601547155,-1.6560028655302674
Lycée professionnel privé le beau rameau Igon,0641665M,lycee,Igon,Bordeaux,Pyrénées-Atlantiques,Privé,102.4,43.15818107501583,-0.23119151598719764
Collège privé Ikastola Xalbador,0641702C,college,Cambo-les-Bains,Bordeaux,Pyrénées-Atlantiques,Privé,127.6,43.35810500448714,-1.407175838855494
Ecole technique privée Coiffure Centre Jorlis,0641807S,lycee,Anglet,Bordeaux,Pyrénées-Atlantiques,Privé,,43.500504665229904,-1.495595214664943
Lycée général et technologique Jacques Monod,0641839B,lycee,Lescar,Bordeaux,Pyrénées-Atlantiques,Public,120.6,43.33277652690051,-0.43550419362019277
Lycée polyvalent de Navarre,0641844G,lycee,Saint-Jean-Pied-de-Port,Bordeaux,Pyrénées-Atlantiques,Public,104.8,43.16609743701028,-1.2306530618898242
Collège Aturri,0642038T,college,Saint-Pierre-d'Irube,Bordeaux,Pyrénées-Atlantiques,Public,116.1,43.47277793670509,-1.442726645245352
Collège Estitxu Robles,0642114A,college,Bayonne,Bordeaux,Pyrénées-Atlantiques,Privé,128.1,43.49825049626969,-1.4587250558055418
Collège  Cours l'Immaculée Conception,0642145J,college,Domezain-Berraute,Bordeaux,Pyrénées-Atlantiques,Privé,,43.32692482453986,-0.966099468311762
Collège Jean Jaurès,0650019T,college,Maubourguet,Toulouse,Hautes-Pyrénées,Public,101.4,43.46766622450729,0.021288131808831615
Lycée général privé Peyramale Saint-Joseph,0650058K,lycee,Lourdes,Toulouse,Hautes-Pyrénées,Privé,108.1,43.094991669450906,-0.044230032814543574
Lycée technologique privé Pradeau-La Sède Saint-Pierre,0650065T,lycee,Tarbes,Toulouse,Hautes-Pyrénées,Privé,113.9,43.236614674159256,0.06788094603419989
Collège Gaston Fébus,0650084N,college,Lannemezan,Toulouse,Hautes-Pyrénées,Public,102.7,43.131011009827155,0.3910798742707803
Collège Victor Hugo,0650835E,college,Tarbes,Toulouse,Hautes-Pyrénées,Public,119.1,43.21904973399345,0.06722978405418295
Lycée polyvalent privé Notre-Dame de Garaison,0650885J,lycee,Monléon-Magnoac,Toulouse,Hautes-Pyrénées,Privé,116.5,43.221802000800714,0.5062284157453536
Collège privé hors contrat Creative,0651123T,college,Benqué-Molère,Toulouse,Hautes-Pyrénées,Privé,,43.09799511119372,0.2953624704920216
Collège Privé hors contrat Semeurs d'Avenir,0651130A,college,Sadournin,Toulouse,Hautes-Pyrénées,Privé,,,
Collège Joseph Calvet,0660029Y,college,Saint-Paul-de-Fenouillet,Montpellier,Pyrénées-Orientales,Public,85.5,42.80895015872295,2.504899299149271
Collège de La Côte Vermeille,0660038H,college,Port-Vendres,Montpellier,Pyrénées-Orientales,Public,97.5,42.51887692133108,3.103760487704064
"Institution La Salle -  Saint Jean, Collège privé",0660063K,college,Perpignan,Montpellier,Pyrénées-Orientales,Privé,119.6,42.698157372900084,2.9070306872944194
Lycée polyvalent privé Sainte Louise-De-Marillac,0660077A,lycee,Perpignan,Montpellier,Pyrénées-Orientales,Privé,107.7,42.68642815793932,2.8818895641942133
Collège Le Riberal,0660431K,college,Saint-Estève,Montpellier,Pyrénées-Orientales,Public,100.8,42.709200608165354,2.8409317976852604
Collège Paul Langevin,0660523K,college,Elne,Montpellier,Pyrénées-Orientales,Public,97,42.61323232220601,2.9786084325018565
Collège Jean Amade,0660601V,college,Céret,Montpellier,Pyrénées-Orientales,Public,101.9,42.48654978236538,2.753822326884421
Lycée agricole privé le Mas Blanc de Bourg-Madame,0660631C,lycee,Bourg-Madame,Montpellier,Pyrénées-Orientales,Privé,,42.441100898510996,1.9467696686000666
"Ecole secondaire professionnelle privée, Sud Formation CCI Perpignan",0660876U,lycee,Perpignan,Montpellier,Pyrénées-Orientales,Privé,,42.673346034276996,2.8525559028198963
"Lycée technologique, annexe du lycée Pablo Picasso",0660907C,lycee,Théza,Montpellier,Pyrénées-Orientales,Public,102.9,42.646065960158396,2.936999681801499
Lycée général privé Saint Pierre de la Mer,0660931D,lycee,Saint-Cyprien,Montpellier,Pyrénées-Orientales,Privé,132.6,42.62138623424841,3.0116303619049005
Collège Marcel Weinum,0670009W,college,Brumath,Strasbourg,Bas-Rhin,Public,115.1,48.73130161608596,7.71453354675869
Collège du Bernstein,0670011Y,college,Dambach-la-Ville,Strasbourg,Bas-Rhin,Public,113.3,48.32489297518824,7.4372484728349715
Collège Romain Rolland,0670017E,college,Erstein,Strasbourg,Bas-Rhin,Public,105.6,48.42191628510746,7.65538698436576
Lycée général et technologique Robert Schuman,0670020H,lycee,Haguenau,Strasbourg,Bas-Rhin,Public,112.9,48.814393993785174,7.796681973194672
Collège Pierre Claude,0670056X,college,Sarre-Union,Strasbourg,Bas-Rhin,Public,95.2,48.93831639416261,7.0916815087147365
Lycée général et technologique Docteur Koeberlé,0670071N,lycee,Sélestat,Strasbourg,Bas-Rhin,Public,114.3,48.26305112957781,7.456954571564161
Lycée général Fustel de Coulanges,0670079X,lycee,Strasbourg,Strasbourg,Bas-Rhin,Public,132.4,48.581551981144216,7.752112369769001
Lycée polyvalent Louis Couffignal - Lycée des métiers,0670085D,lycee,Strasbourg,Strasbourg,Bas-Rhin,Public,97.6,48.56091058363956,7.747041357357943
Lycée polyvalent Stanislas - Lycée des métiers,0670114K,lycee,Wissembourg,Strasbourg,Bas-Rhin,Public,106.7,49.03522308610011,7.960051020913197
Collège Louise Weiss,0671593T,college,Strasbourg,Strasbourg,Bas-Rhin,Public,89.7,48.567722908190156,7.768280627662811
A.C.E.E.M.M. Institut Saint-Joseph,0671604E,college,Matzenheim,Strasbourg,Bas-Rhin,Privé,127.7,48.3948514496723,7.622284301199218
Ecole Aquiba (Lycée général privé),0671615S,lycee,Strasbourg,Strasbourg,Bas-Rhin,Privé,134.5,48.589855680782456,7.753071692905849
Collège privé Ecole Libre Sainte Anne,0671620X,college,Strasbourg,Strasbourg,Bas-Rhin,Privé,126.2,48.563434115182,7.760820253662249
Collège Sébastien Brant,0671687V,college,Eschau,Strasbourg,Bas-Rhin,Public,112.5,48.487073380234996,7.713698073125327
Collège Georges Holderith,0671688W,college,Lauterbourg,Strasbourg,Bas-Rhin,Public,108.9,48.97308378167757,8.182354290409213
Collège Frison Roche,0671697F,college,La Broque,Strasbourg,Bas-Rhin,Public,89.5,48.46601126527814,7.208748867746598
Collège Charles Munch,0671738A,college,Niederbronn-les-Bains,Strasbourg,Bas-Rhin,Public,100.2,48.95739532998513,7.636112246659768
Collège International Vauban,0671909L,college,Strasbourg,Strasbourg,Bas-Rhin,Public,95.6,48.582135183779386,7.777870947628021
Collège Herrade de Landsberg,0671913R,college,Rosheim,Strasbourg,Bas-Rhin,Public,122.8,48.50090610616952,7.4761945329227055
Collège international de l'Esplanade,0671915T,college,Strasbourg,Strasbourg,Bas-Rhin,Public,109.9,48.57825570329037,7.773517064717907
Collège des Châteaux,0671962U,college,Châtenois,Strasbourg,Bas-Rhin,Public,117.9,48.270852532819234,7.407760316822057
Collège Léonard de Vinci,0671985U,college,Marmoutier,Strasbourg,Bas-Rhin,Public,104.8,48.689298076056566,7.374572337174496
Collège Poincaré,0671987W,college,Saverne,Strasbourg,Bas-Rhin,Public,109.2,48.74066798731315,7.360599508868806
Collège Grégoire de Tours,0671989Y,college,Marlenheim,Strasbourg,Bas-Rhin,Public,119.2,48.618990768205116,7.493541391482633
Collège Baldung Grien,0672012Y,college,Hoerdt,Strasbourg,Bas-Rhin,Public,118.1,48.69990647016125,7.7910259520027845
Collège du Bastberg,0672076T,college,Bouxwiller,Strasbourg,Bas-Rhin,Public,103.6,48.823350050111344,7.481417518461795
Collège André Maurois,0672130B,college,Bischwiller,Strasbourg,Bas-Rhin,Public,86.6,48.77832938281306,7.846765242693399
Collège Foch,0672136H,college,Haguenau,Strasbourg,Bas-Rhin,Public,93.3,48.81346567283003,7.792604621260492
Collège Nelson Mandela,0672194W,college,Illkirch-Graffenstaden,Strasbourg,Bas-Rhin,Public,100.3,48.52084991896933,7.72096125009272
Collège Pierre Aguiton,0501302U,college,Brécey,Normandie,Manche,Public,98.7,48.72746095288361,-1.1683997621875153
Collège La Chaussonnière,0501525L,college,Avranches,Normandie,Manche,Public,98.8,48.67889134000722,-1.3490924936986965
Collège privé Notre-Dame,0501704F,college,Avranches,Normandie,Manche,Privé,109.4,48.6855986301863,-1.3562493869179986
Lycée professionnel privé La Bucaille,0501788X,lycee,Cherbourg-en-Cotentin,Normandie,Manche,Privé,105,49.6398488045828,-1.6277906560930724
Lycée professionnel privé Institution Notre Dame,0501941N,lycee,Carentan-les-Marais,Normandie,Manche,Privé,96.3,49.30492894239865,-1.247459855206677
Lycée professionnel Thomas Pesquet,0502009M,lycee,Coutances,Normandie,Manche,Public,92.6,49.04242171745987,-1.4376402647079458
Collège Victor Duruy,0510010J,college,Châlons-en-Champagne,Reims,Marne,Public,101.1,48.95581116466658,4.353437153624679
Collège de la Brie Champenoise,0510026B,college,Montmirail,Reims,Marne,Public,92.2,48.8768877797906,3.550010647987584
Collège Pierre Souverville,0510030F,college,Pontfaverger-Moronvilliers,Reims,Marne,Public,106.7,49.295259209426156,4.309732642081052
Lycée général Georges Clemenceau,0510031G,lycee,Reims,Reims,Marne,Public,119.4,49.25073432345288,4.046330326900803
"Lycée professionnel Raymond KOPA - Lycée des métiers de l'agencement, de la topographie et de la commercialisation",0510037N,lycee,Reims,Reims,Marne,Public,81.6,49.24965875528182,4.058829555724916
Collège La Fontaine du Vé,0510054G,college,Sézanne,Reims,Marne,Public,96.4,48.725484147857486,3.716919433550897
Collège Louis Pasteur SUIPPES,0510056J,college,Suippes,Reims,Marne,Public,97.2,49.12672268918688,4.536289802169468
Collège Paul Eluard,0510060N,college,Verzy,Reims,Marne,Public,117.8,49.146517450677294,4.166509963402198
Collège Nicolas Appert,0511083A,college,Châlons-en-Champagne,Reims,Marne,Public,87.7,48.95291186468392,4.33690065693748
Collège Paul Fort,0511108C,college,Reims,Reims,Marne,Public,75.5,49.22701661700926,4.042520099566606
Collège privé Jeanne d'Arc - La Salle,0511139L,college,Reims,Reims,Marne,Privé,108.3,49.2670457638736,4.025919965858155
Lycée général privé Saint Joseph,0511140M,lycee,Reims,Reims,Marne,Privé,141.8,49.247044020034096,4.035980624193684
Collège Saint-Rémi,0511179E,college,Reims,Reims,Marne,Public,98.2,49.243428900843334,4.035979583222365
"Lycée d'enseignement général, technologique et professionnel agricole d'Avize",0511219Y,lycee,Avize,Reims,Marne,Public,,48.968560821913194,4.00782932099321
Collège Gisèle Probst,0511476C,college,Vitry-le-François,Reims,Marne,Public,95.3,48.72814196601992,4.592600583273537
"Lycée polyvalent Georges Brière - Lycée des métiers de l'industrie, de la défense et du graphisme",0511884W,lycee,Reims,Reims,Marne,Public,88.9,49.22398519953693,4.027090434385106
Collège Léonard de Vinci,0512014M,college,Witry-lès-Reims,Reims,Marne,Public,116.8,49.291686636816166,4.108070626688349
Micro Lycée du Lycée Polyvalent Georges Brière,0512163Z,lycee,Reims,Reims,Marne,Public,,49.22369097053217,4.027750337502952
Collège Françoise Dolto,0520025V,college,Nogent,Reims,Haute-Marne,Public,91.1,48.02869541336096,5.347839407282649
Lycée polyvalent Saint-Exupéry - Lycée des métiers de la personne et du bien vivre,0520027X,lycee,Saint-Dizier,Reims,Haute-Marne,Public,85,48.643466753881505,4.9638204951459
Collège La Noue,0520051Y,college,Saint-Dizier,Reims,Haute-Marne,Public,87.4,48.63873460600575,4.931479411479316
LYCEE POLYVALENT EDME BOUCHARDON,0520844K,lycee,Chaumont,Reims,Haute-Marne,Public,98.1,48.10656571749877,5.147709702192836
Lycée polyvalent Charles de Gaulle - Lycée des métiers du design graphique et de la transformation du bois,0521032P,lycee,Chaumont,Reims,Haute-Marne,Public,108.4,48.07304597959165,5.1469802892174785
Ecole professionnelle privée de production Métaltech,0521134A,lycee,Nogent,Reims,Haute-Marne,Privé,,48.041272618830256,5.352745542929102
Collège Léo Ferré,0530001N,college,Ambrières-les-Vallées,Nantes,Mayenne,Public,98.8,48.39798359573725,-0.6334914329156816
Lycée général et technologique Ambroise Paré,0530010Y,lycee,Laval,Nantes,Mayenne,Public,111.2,48.06593887069267,-0.7763004705105594
Lycée professionnel Robert Buron,0530013B,lycee,Laval,Nantes,Mayenne,Public,87.2,48.06730596925909,-0.7588067134437035
Lycée général et technologique Lavoisier,0530016E,lycee,Mayenne,Nantes,Mayenne,Public,113.2,48.30546506348627,-0.628930620415273
Collège privé Sainte Thérèse,0530051T,college,Laval,Nantes,Mayenne,Privé,113.6,48.06948365411429,-0.7822299379847947
Collège privé Sacré-Coeur,0530059B,college,Evron,Nantes,Mayenne,Privé,97.1,48.15554027847027,-0.3985203322112015
Ecole technique privée Groupe Silvya Terrade Laval,0530074T,lycee,Laval,Nantes,Mayenne,Privé,,48.071202957397226,-0.7631296830865011
Collège Jules Renard,0530082B,college,Laval,Nantes,Mayenne,Public,107.4,48.08414496205383,-0.7572100296426869
Collège Maurice Genevoix,0530791X,college,Meslay-du-Maine,Nantes,Mayenne,Public,96.6,47.948390721425184,-0.5542801425039587
Lycée agricole privé de Rochefeuille - site d'Ernee,0530815Y,lycee,Ernée,Nantes,Mayenne,Privé,,48.304365355583585,-0.941330194015649
Lycée agricole privé de Rochefeuille - site de Mayenne,0530818B,lycee,Mayenne,Nantes,Mayenne,Privé,,48.31714621549721,-0.6231598650544556
Collège privé Immaculée-Conception,0530875N,college,Laval,Nantes,Mayenne,Privé,126.5,48.07432839389006,-0.7688393804897461
Lycée polyvalent Raoul Vadepied,0530949U,lycee,Evron,Nantes,Mayenne,Public,97.8,48.15215604323232,-0.3993806372392612
Collège René Gaillard,0540004L,college,Bénaménil,Nancy-Metz,Meurthe-et-Moselle,Public,100.9,48.56890280636425,6.67124937458415
Collège Joliot-Curie,0540013W,college,Dieulouard,Nancy-Metz,Meurthe-et-Moselle,Public,109,48.84120070858394,6.060369512487257
Lycée polyvalent Alfred Mézières,0540030P,lycee,Longwy,Nancy-Metz,Meurthe-et-Moselle,Public,95.4,49.52139215572035,5.759200415497841
Lycée professionnel La Tournelle - Lycée des métiers du sanitaire et du social,0540060X,lycee,Pont-Saint-Vincent,Nancy-Metz,Meurthe-et-Moselle,Public,79.6,48.60275021251534,6.100250680617055
Lycée Marie Marvingt - Lycée des métiers des services et du commerce,0540061Y,lycee,Tomblaine,Nancy-Metz,Meurthe-et-Moselle,Public,82.2,48.69608368701493,6.2162704137512
Etablissement régional d'enseignement adapté François Richard JOUBERT,0541268K,lycee,Flavigny-sur-Moselle,Nancy-Metz,Meurthe-et-Moselle,Public,,48.56381469770869,6.1809897405190535
Lycée général et technologique privé des Récollets,0541309E,lycee,Longwy,Nancy-Metz,Meurthe-et-Moselle,Privé,109.5,49.51753422970418,5.765990664360251
Collège Albert Lebrun,0541334G,college,Longwy,Nancy-Metz,Meurthe-et-Moselle,Public,82.2,49.53239073301865,5.761939597672267
Etablissement régional d'enseignement adapté Hubert Martin,0541338L,lycee,Val de Briey,Nancy-Metz,Meurthe-et-Moselle,Public,,49.26094258170972,5.931380396082084
Lycée professionnel privé Marie Immaculée,0541364P,lycee,Nancy,Nancy-Metz,Meurthe-et-Moselle,Privé,101.7,48.68210623610392,6.183919792139862
Collège René Nicklès,0541706L,college,Dommartemont,Nancy-Metz,Meurthe-et-Moselle,Public,105,48.71175326778883,6.211560479128741
Collège privé St Joseph du Moncel,0601147W,college,Pont-Sainte-Maxence,Amiens,Oise,Privé,113.2,49.29980868874432,2.6063900838691305
Collège Marguerite Berger,0623112W,college,Pas-en-Artois,Lille,Pas-de-Calais,Public,93,50.15757036869106,2.4881994306841806
Collège APIE SCHOOL,0195075N,college,Salon-la-Tour,Limoges,Corrèze,Privé,,45.50455129094277,1.537341336018375
Lycée polyvalent Clos Maire,0210006T,lycee,Beaune,Dijon,Côte-d'Or,Public,113.8,47.02987741957446,4.838099695327464
Lycée général et technologique Carnot,0210015C,lycee,Dijon,Dijon,Côte-d'Or,Public,131.5,47.3240944612801,5.047770644841433
Collège Champollion,0210024M,college,Dijon,Dijon,Côte-d'Or,Public,100.9,47.33200748662968,5.073849533715506
Collège Henri Dunant,0210025N,college,Dijon,Dijon,Côte-d'Or,Public,91.1,47.303547365518966,5.014969946145311
Collège Paul Fort,0210029T,college,Is-sur-Tille,Dijon,Côte-d'Or,Public,112.7,47.52670006939735,5.10663060680541
Collège René Cassin,0623312N,college,Lillers,Lille,Pas-de-Calais,Public,90.1,50.55895892470479,2.471610200879648
Collège Henri Morat,0210043H,college,Recey-sur-Ource,Dijon,Côte-d'Or,Public,98.9,47.78139843665893,4.857289649799151
Collège privé La Malassise,0623572W,college,Longuenesse,Lille,Pas-de-Calais,Privé,133.6,50.73675598497991,2.243659848691866
Collège Marcelle Parde,0211034K,college,Dijon,Dijon,Côte-d'Or,Public,127.7,47.32045213413042,5.032840384777923
Collège privé Saint Bénigne-La Maîtrise,0211071A,college,Dijon,Dijon,Côte-d'Or,Privé,121.3,47.30666192225326,5.018464264547365
Lycée général privé Notre Dame,0211074D,lycee,Dijon,Dijon,Côte-d'Or,Privé,143.5,47.3289210393171,5.016449651162063
Collège Edouard Herriot,0211096C,college,Chenôve,Dijon,Côte-d'Or,Public,86.3,47.29197047250061,5.007050661079551
Collège Camille Claudel,0211137X,college,Chevigny-Saint-Sauveur,Dijon,Côte-d'Or,Public,109.3,47.30283345116916,5.128270187026324
Collège privé Saint François de Sales,0211151M,college,Dijon,Dijon,Côte-d'Or,Privé,139.7,47.33018859144901,5.018130441684809
Collège Albert Camus,0211164B,college,Genlis,Dijon,Côte-d'Or,Public,106.2,47.2388272135094,5.227369859090949
Collège Alésia,0211184Y,college,Venarey-les-Laumes,Dijon,Côte-d'Or,Public,97.7,47.54070461755906,4.465830169955809
Collège Monge,0211229X,college,Beaune,Dijon,Côte-d'Or,Public,109.7,47.04049370989397,4.837229522960719
Lycée Professionnel Maximilien de Robespierre,0623864N,lycee,Lens,Lille,Pas-de-Calais,Public,79.3,50.43957792762937,2.7964398974781792
Ecole secondaire privée Saint Jean-Baptiste de La Salle - niveau Collège,0623943Z,college,Camblain-l'Abbé,Lille,Pas-de-Calais,Privé,,50.37339678190759,2.6395605406160394
Collège Marcel Aymé,0211391Y,college,Marsannay-la-Côte,Dijon,Côte-d'Or,Public,107.9,47.279914450304034,5.005259757103433
Collège Jean Rostand,0211477S,college,Quetigny,Dijon,Côte-d'Or,Public,106.8,47.318392674318034,5.107229384236977
Collège Champ-Lumière,0211557D,college,Selongey,Dijon,Côte-d'Or,Public,103.7,47.58286012229989,5.170620450563257
Collège Georges Brassens,0211756V,college,Brazey-en-Plaine,Dijon,Côte-d'Or,Public,104.5,47.13025467126609,5.217269478987359
Lycée polyvalent Les Marcs d'Or,0211986V,lycee,Dijon,Dijon,Côte-d'Or,Public,98.4,47.31733971756672,4.992439443275647
Collège Cours Saint Dominique,0212272F,college,Pouilly-en-Auxois,Dijon,Côte-d'Or,Privé,,47.26576479926289,4.554323083672084
Lycée Les Bambous,0212277L,lycee,Agencourt,Dijon,Côte-d'Or,Privé,,47.128341811817535,4.977560343811822
Ecole de production industrie 21,0212284U,lycee,Dijon,Dijon,Côte-d'Or,Privé,,47.35817191032815,5.044617320129847
Collège EDEL,0212285V,college,Dijon,Dijon,Côte-d'Or,Privé,,47.32404061757479,5.035982681860661
Lycée de notre Dame de Cîteaux,0212299K,lycee,Saint-Nicolas-lès-Cîteaux,Dijon,Côte-d'Or,Privé,,47.12314759999918,5.073702495133081
Cours Le Lys,0212308V,college,Dijon,Dijon,Côte-d'Or,Privé,,,
Lycée polyvalent Fulgence Bienvenüe,0220027K,lycee,Loudéac,Rennes,Côtes-d'Armor,Public,93.6,48.18485419441327,-2.7593795968754673
Collège Paul Sébillot,0220029M,college,Matignon,Rennes,Côtes-d'Armor,Public,98.5,48.59759923123567,-2.2951193705621526
Lycée général et technologique privé Notre-Dame,0220097L,lycee,Guingamp,Rennes,Côtes-d'Armor,Privé,115.2,48.562440615195335,-3.1426202883760856
Lycée général et technologique privé Saint Joseph - Bossuet,0220102S,lycee,Lannion,Rennes,Côtes-d'Armor,Privé,124.8,48.72874868839299,-3.4561094497874234
Pôle Supérieur Lycée Saint Brieuc,0220116G,lycee,Saint-Brieuc,Rennes,Côtes-d'Armor,Privé,106.7,48.51162179615361,-2.7751196794780686
Collège privé Sainte-Anne Saint-Joachim,0220140H,college,Evran,Rennes,Côtes-d'Armor,Privé,102.1,48.38319649567221,-1.982369819291916
Collège privé Saint Joseph,0220151V,college,Paimpol,Rennes,Côtes-d'Armor,Privé,111.7,48.781999322368144,-3.04590965314893
Collège privé Notre-Dame des Fontaines,0220166L,college,Pontrieux,Rennes,Côtes-d'Armor,Privé,103.7,48.69680734316989,-3.1654805378873947
Ecole secondaire privée musulmane Alpharabius,0624479G,college,Montigny-en-Gohelle,Lille,Pas-de-Calais,Privé,,50.4351919608092,2.9276994956483047
Collège du Beffroi,0630009T,college,Billom,Clermont-Ferrand,Puy-de-Dôme,Public,106.9,45.720615870851816,3.3389893586048878
Collège Champclaux,0630017B,college,Châtel-Guyon,Clermont-Ferrand,Puy-de-Dôme,Public,118.3,45.92191927352103,3.0704994350019796
Lycée international Jeanne d'Arc,0630019D,lycee,Clermont-Ferrand,Clermont-Ferrand,Puy-de-Dôme,Public,127.4,45.77743997678379,3.094910386297031
Collège Lucien Gachon,0630031S,college,Cunlhat,Clermont-Ferrand,Puy-de-Dôme,Public,99.1,45.63055760417839,3.5601598360107163
Collège René Cassin,0630038Z,college,Manzat,Clermont-Ferrand,Puy-de-Dôme,Public,112,45.960953219180496,2.942749867868202
Collège Val d'Ance,0630058W,college,Saint-Anthème,Clermont-Ferrand,Puy-de-Dôme,Public,101.1,45.52736452083878,3.918241998068634
Collège Gaspard des Montagnes,0630064C,college,Saint-Germain-l'Herm,Clermont-Ferrand,Puy-de-Dôme,Public,98.9,45.45648556727962,3.5398127631173337
Lycée professionnel Germaine Tillion,0630078T,lycee,Thiers,Clermont-Ferrand,Puy-de-Dôme,Public,80.1,45.845588655164136,3.5267999787582704
Collège Charles Brochen,0221542G,college,Pontrieux,Rennes,Côtes-d'Armor,Public,94.5,48.69848747368336,-3.1672001351978696
Lycée agricole privé Pommerit Jaudy,0221593M,lycee,La Roche-Jaudy,Rennes,Côtes-d'Armor,Privé,,48.716298151462546,-3.261774239316856
